AHI #,Project ID,Project Name,Owner,Developer,Address,Zip Code ,Council District,Total Units,Total Affordable Units,Total PSH Units ,Unit Type,Tenure,Status,Affordability Start Year,Affordability Expiration Year ,Affordability Period,Fee in Lieu Status,Calculated Fee In Lieu,Units <= 30% MFI,Units <= 40% MFI,Units <= 50% MFI,Units <= 60% MFI,Units <= 65% MFI,Units <= 80% MFI,Market Rate Units,RHDA ,OHDA,PA Bond ,CLT,DDB,ERC,MDA,MUD,MUDB,NBG,PUDDA,PUDDB,RNY,SMART,SMART-GF,TOD,UNO,VMU,VOL,2006 GO Bond ,2013 GO Bond,CDBG,HOME,HTF,CIP,UNO TF ,Total City Funding ,LIHTC ,Longitude,Latitude,Location
301,3816,Colony Park (PUD),Austin Housing Finance Corporation,Austin Housing Finance Corporation,0 Loyola,"78,724",1,"2,027",405,,Multifamily,Rental,Certified/Loan Executed,,,40,None,,0,0,0,405,0,0,"1,622",No,No,No,No,No,No,No,No,No,No,Yes,No,No,Yes,No,No,No,No,No,,,,,,,,0,N/A,-97.633418,30.295864,"(30.295864, -97.633418)"
239,3620,Corazon,"Corazon Urban MF-East, LP","Corazon Urban MF-East, LP",1000 E 5th Street,"78,702",3,332,35,,Multifamily,Rental,Project Completed,2015,2055,40,None,,0,0,0,35,0,0,297,No,No,No,No,No,No,No,No,No,No,No,No,No,No,No,Yes,No,No,No,,,,,,,,0,N/A,-97.732261,30.26434589,"(30.26434589, -97.732261)"
372,3959,Amli Eastside,"Riata Partners, LLC","Robertson Hill Land, Ltd.",1000 San Marcos Street,"78,702",1,290,29,,Multifamily,Rental,Project Completed,2016,2021,5,None,0,0,0,0,0,0,29,261,No,No,No,No,No,No,Yes,No,No,No,No,No,No,No,No,No,No,No,No,,,,,,,,0,N/A,-97.731273,30.268964,"(30.268964, -97.731273)"
650,5560,Domain Office Tower 3,SL Domain LP,SL Domain LP,10025 Alterra Pkwy,"78,758",7,0,0,0,Non-Residential,Non-Residential,Application Received,,,0,Pending,0,0,0,0,0,0,0,0,No,No,No,No,No,No,No,No,No,Yes,No,No,No,No,No,No,No,No,No,,,,,,,,0,N/A,,,
55,3313,1002 Navasota,Guadalupe Neighborhood Development Corporation,Guadalupe Neighborhood Development Corporation,1002 Navasota,"78,702",1,1,1,,Single Family,Rental,Project Completed,2001,2021,20,None,,0,0,0,0,0,1,0,Yes,No,No,No,No,No,No,No,No,No,No,No,No,No,No,No,No,No,No,0,0,0,"25,000.00",0,0,0,"25,000.00",N/A,-97.72672043,30.26771857,"(30.26771857, -97.72672043)"
12,3239,1002 Wheeless Street,Guadalupe Neighborhood Development Corporation,Guadalupe Neighborhood Development Corporation,1002 Wheeless Street,"78,702",1,2,2,,Duplex,Rental,Project Completed,2007,2027,20,None,,0,0,0,2,0,0,0,Yes,No,No,No,No,No,No,No,No,No,No,No,No,Yes,No,No,No,No,No,0,0,0,"60,000.00",0,0,0,"60,000.00",N/A,-97.72775965,30.26797186,"(30.26797186, -97.72775965)"
55,3314,1007 Waller Street,Guadalupe Neighborhood Development Corporation,Guadalupe Neighborhood Development Corporation,1007 Waller Street,"78,702",1,1,1,,Single Family,Rental,Project Completed,2001,2021,20,None,,0,0,0,0,0,1,0,Yes,No,No,No,No,No,No,No,No,No,No,No,No,No,No,No,No,No,No,0,0,0,"25,000.00",0,0,0,"25,000.00",N/A,-97.7292821,30.26864625,"(30.26864625, -97.7292821)"
641,5517,1008 Brass Street,Guadalupe Neighborhood Development Corporation,Guadalupe Neighborhood Development Corporation,1008 Brass Street,"78,702",3,1,1,0,Single Family,Rental,Application Received,,,0,None,0,0,0,1,0,0,0,0,Yes,No,No,No,No,No,No,No,No,No,No,No,No,Yes,No,No,No,No,No,,,,,,,,0,N/A,-97.704386,30.26437,"(30.26437, -97.704386)"
641,5518,1008 Brass Street (ADU),Guadalupe Neighborhood Development Corporation,Guadalupe Neighborhood Development Corporation,1008 Brass Street,"78,702",3,1,1,0,ADU,Rental,Application Received,,,0,None,0,0,0,1,0,0,0,0,Yes,No,No,No,No,No,No,No,No,No,No,No,No,Yes,No,No,No,No,No,,,,,,,,0,N/A,-97.704386,30.26437,"(30.26437, -97.704386)"
12,3243,1009 E 10th Street,Guadalupe Neighborhood Development Corporation,Guadalupe Neighborhood Development Corporation,1009 E 10th Street,"78,702",1,1,1,,Duplex,Rental,Project Completed,2005,2025,20,None,,0,0,0,1,0,0,0,Yes,No,No,No,No,No,No,No,No,No,No,No,No,Yes,No,No,No,No,No,0,0,0,"60,000.00",0,0,0,"60,000.00",N/A,-97.73057811,30.26842833,"(30.26842833, -97.73057811)"
209,3590,Ruth R. Schulze House,"University of Texas Inter-Cooperative Council, Inc.","University of Texas Inter-Cooperative Council, Inc.",915 W 22nd Street,"78,705",9,34,9,,Multifamily,Rental,Building Permit Issued,2018,2068,50,None,,0,0,9,0,0,0,25,Yes,No,No,No,No,No,No,No,No,No,No,No,No,Yes,No,No,Yes,No,No,0,0,0,0,0,0,"928,089.00","928,089.00",N/A,-97.74790896,30.28523998,"(30.28523998, -97.74790896)"
278,3755,Aspen West Campus,"Breckenridge Group West Campus, LP",Aspen Heights,1909 Rio Grande Street,"78,705",9,464,48,,Multifamily,Rental,Project Completed,2018,2058,40,Paid,"166,633.00",0,0,0,48,0,0,416,No,No,No,No,No,No,No,No,No,No,No,No,No,Yes,No,No,Yes,No,No,,,,,,,,0,N/A,-97.744783,30.283589,"(30.283589, -97.744783)"
303,5412,Plaza Saltillo,Endeavor Real Estate Group,Endeavor Real Estate Group,1011 E 5th Street,"78,702",3,278,41,0,Multifamily,Rental,Building Permit Issued,,,40,None,0,0,0,41,0,0,0,237,No,No,No,No,No,No,No,No,No,No,No,No,No,No,No,Yes,No,No,No,,,,,,,,0,N/A,-97.732588,30.263744,"(30.263744, -97.732588)"
288,3768,Villages at Fiskville,"LDG Multifamily, LLC",LDG Multifamily LLC,10127 Middle Fiskville Road,"78,753",4,172,155,,Multifamily,Rental,Building Permit Issued,2017,2032,15,None,,0,0,0,69,0,86,17,No,No,No,No,No,No,No,No,No,No,No,No,No,Yes,No,No,No,No,No,,,,,,,,0,4%,-97.681344,30.364435,"(30.364435, -97.681344)"
13,3244,Garden Terrace Phase I,Garden Terrace Housing Corporation,"Foundation Communities, Inc.",1015 W William Cannon Drive,"78,745",2,85,85,0,Multifamily,Rental,Project Completed,2003,2033,30,None,,0,0,85,0,0,0,0,Yes,No,No,No,No,No,No,No,No,No,No,No,No,Yes,No,No,No,No,No,0,0,0,"500,000.00",0,0,0,"500,000.00",N/A,-97.79342653,30.19864089,"(30.19864089, -97.79342653)"
296,3795,Garden Terrace Phase III,"Foundation Communities, Inc.","Foundation Communities, Inc.",1015 W William Cannon Drive,"78,745",5,20,20,4,Multifamily,Rental,Building Permit Issued,2015,2055,40,None,,4,0,16,0,0,0,0,Yes,No,No,No,No,No,No,No,No,No,No,No,No,Yes,No,No,No,No,No,0,"1,200,000.00",0,"176,070.00",0,0,0,"1,376,070.00",N/A,-97.792919,30.198406,"(30.198406, -97.792919)"
3,3226,"Garden Terrace Expansion (aka Garden Terrace, Phase II)",Garden Terrace Housing Corporation,"Foundation Communities, Inc.",1015 W William Cannon Drive,"78,745",2,15,15,0,Multifamily,Rental,Project Completed,2007,2037,30,None,,0,0,15,0,0,0,0,Yes,No,No,No,No,No,No,No,No,No,No,No,No,Yes,No,No,No,No,No,0,0,0,0,"500,000.00",0,0,"500,000.00",N/A,-97.79342653,30.19864089,"(30.19864089, -97.79342653)"
617,5440,Primrose at Shadow Creek (fka Arbors Creekside),"Arbors Housing Partners, Ltd.",Unknown,1026 Clayton Lane,"78,723",1,176,176,0,Multifamily,Rental,Project Completed,2001,2021,20,None,0,0,0,0,176,0,0,0,No,No,No,No,No,No,No,No,No,No,No,No,No,No,No,No,No,No,No,,,,,,,,0,4%,-97.704317,30.319659,"(30.319659, -97.704317)"
618,5441,Timbers Apartments,"Timbers Clayton 104 Apartments, L.P.",Unknown,1034 Clayton Lane,"78,723",1,104,104,0,Multifamily,Rental,Project Completed,2016,2091,75,None,0,0,0,0,104,0,0,0,No,No,No,No,No,No,No,No,No,No,No,No,No,No,No,No,No,No,No,,,,,,,,0,N/A,-97.703606,30.319351,"(30.319351, -97.703606)"
127,3512,The Paddock at Norwood,"LDG Norwood, LP",LDG Norwood,1044 Norwood Park Boulevard,"78,753",4,228,228,,Multifamily,Rental,Project Completed,2014,2019,5,None,,0,0,0,228,0,0,0,No,No,No,No,No,No,No,No,No,No,No,No,No,Yes,No,No,No,No,No,,,,,,,,0,4%,-97.69155233,30.3365467,"(30.3365467, -97.69155233)"
658,5569,North Burnet Gateway Plaza,Dailey Robson Enterprises LLC; CCP Burnet LLC,Dailey Robson Enterprises LLC; CCP Burnet LLC,10615 Burnet Road,"78,758",7,0,0,0,Non-Residential,Non-Residential,Certified/Loan Executed,,,0,Pending,"2,718,527.00",0,0,0,0,0,0,0,No,No,No,No,No,No,No,No,No,Yes,No,No,No,No,No,No,No,No,No,,,,,,,,0,N/A,-97.72192,30.39005,"(30.39005, -97.72192)"
74,3391,Parkwest Condos,Frameworks Community Development Corporation,Frameworks Community Development Corporation,10616 Mellow Meadows Drive,"78,750",6,1,1,0,Single Family,Rental,Project Completed,2014,2112,99,None,,0,0,1,0,0,0,0,Yes,No,No,No,No,No,No,No,No,No,No,No,No,No,No,No,No,No,No,0,0,"55,055.33",0,0,0,0,"55,055.33",N/A,-97.80172791,30.460423,"(30.460423, -97.80172791)"
113,3712,Green Doors - Dessau Road,Green Doors,Green Doors,10620 Dessau Road,"78,754",1,60,60,,Single Family,Rental,Project Cancelled,,,5,None,,0,0,60,0,0,0,0,No,No,No,No,No,No,No,No,No,No,No,No,No,Yes,No,No,No,No,No,,,,,,,,0,N/A,-97.668584,30.364644,"(30.364644, -97.668584)"
360,3931,HPI-Domain Office,HPI Real Estate Services & Investments,Big Red Dog,10721 Domain Drive,"78,758",7,0,0,,Multifamily,Rental,Project Completed,,,0,Paid,"581,536.00",0,0,0,0,0,0,0,No,No,No,No,No,No,No,No,No,Yes,No,No,No,No,No,No,No,No,No,,,,,,,,0,N/A,-97.726734,30.39543,"(30.39543, -97.726734)"
517,5245,Flatiron Domain,"SL Domain LP, Michael Massad 214-965-0630",Big Red Dog,10727 Domain Drive,"78,758",7,363,39,0,Multifamily,Rental,Building Permit Issued,,,0,Paid,"245,772.00",0,0,0,0,0,0,0,No,No,No,No,No,No,No,No,No,Yes,No,No,No,No,No,No,No,No,No,,,,,,,,0,N/A,-97.725581,30.393743,"(30.393743, -97.725581)"
389,4182,Highland Phase II South,Austin Community College District,"Redleaf Properties, LLC/Austin Community College District",109 Jacob Fontaine Lane,"78,752",4,168,17,,Multifamily,Rental,Building Permit Issued,,,0,None,0,0,0,0,0,0,17,151,No,No,No,No,No,No,No,No,No,No,No,No,No,No,No,No,No,Yes,No,,,,,,,,0,N/A,-97.714668,30.324758,"(30.324758, -97.714668)"
55,3311,1100 E 10th Street,Guadalupe Neighborhood Development Corporation,Guadalupe Neighborhood Development Corporation,1100 E 10th Street,"78,702",1,1,1,0,Single Family,Rental,Project Completed,2001,2021,20,None,,0,0,0,0,0,1,0,Yes,No,No,No,No,No,No,No,No,No,No,No,No,No,No,No,No,No,No,0,0,0,"25,000.00",0,0,0,"25,000.00",N/A,-97.72934019,30.26843907,"(30.26843907, -97.72934019)"
327,3862,GNDC - SF,Guadalupe Neighborhood Development Corporation,Guadalupe Neighborhood Development Corporation,1100 E Cesar Chavez Street,"78,702",3,1,1,,Single Family,Rental,Certified/Loan Executed,,,5,None,,0,0,0,1,0,0,0,No,No,No,No,No,No,No,No,No,No,No,No,No,Yes,No,No,No,No,No,,,,,,,,0,N/A,-97.733341,30.260422,"(30.260422, -97.733341)"
224,3605,Lamar Union Apartments,Greystar Real Estate Partners,Greystar Real Estate Partners,1100 S Lamar Boulevard,"78,704",5,441,44,,Multifamily,Rental,Project Completed,2015,2055,40,None,,0,0,0,44,0,0,397,No,No,No,No,No,No,No,No,No,No,No,No,No,No,No,No,No,Yes,No,,,,,,,,0,N/A,-97.76185675,30.25598205,"(30.25598205, -97.76185675)"
357,3921,The Villages at The Domain,"EGP Management, L.L.C.","EGP Management, L.L.C.",11011 Domain Drive,"78,758",7,436,3,,Multifamily,Rental,Project Completed,2010,2028,18,None,,0,0,0,0,3,0,433,No,No,No,No,No,No,Yes,No,No,No,No,No,No,Yes,No,No,No,No,No,,,,,,,,0,N/A,-97.725756,30.396506,"(30.396506, -97.725756)"
161,3542,Cardinal Point Apartments,"Foundation Communities, Inc.","Foundation Communities, Inc.",11015 Four Points Drive,"78,730",6,120,120,12,Multifamily,Rental,Project Completed,2015,2055,40,None,,12,0,60,48,0,0,0,Yes,No,No,No,No,No,No,No,No,No,No,No,No,Yes,No,No,No,No,No,0,"2,575,000.00",0,0,0,0,0,"2,575,000.00",9%,-97.84577071,30.39907683,"(30.39907683, -97.84577071)"
613,5435,Runnymeade Apartments,"SAAHC Runnymeade Apartments, L.P.",Unknown,1101 Rutland Drive,"78,758",4,252,252,0,Multifamily,Rental,Project Completed,2007,2027,20,None,0,0,0,0,252,0,0,0,No,No,No,No,No,No,No,No,No,No,No,No,No,No,No,No,No,No,No,,,,,,,,0,4%,-97.702694,30.366941,"(30.366941, -97.702694)"
641,5516,1103 Clermont Avenue (ADU),Guadalupe Neighborhood Development Corporation,Guadalupe Neighborhood Development Corporation,1103 Clermont Avenue,"78,702",3,1,1,0,ADU,Rental,Application Received,,,0,None,0,0,0,1,0,0,0,0,Yes,No,No,No,No,No,No,No,No,No,No,No,No,Yes,No,No,No,No,No,,,,,,,,0,N/A,-97.735987,30.254396,"(30.254396, -97.735987)"
327,3864,GNDC - SF,Guadalupe Neighborhood Development Corporation,Guadalupe Neighborhood Development Corporation,1103 Clermont Avenue,"78,702",3,1,1,,Single Family,Rental,Certified/Loan Executed,,,5,None,,0,0,0,1,0,0,0,No,No,No,No,No,No,No,No,No,No,No,No,No,Yes,No,No,No,No,No,,,,,,,,0,N/A,-97.735982,30.254406,"(30.254406, -97.735982)"
303,5413,Plaza Saltillo,Endeavor Real Estate Group,Endeavor Real Estate Group,1109 E 5th Street,"78,702",3,278,0,0,Multifamily,Rental,Building Permit Issued,,,0,None,0,0,0,0,0,0,0,278,No,No,No,No,No,No,No,No,No,No,No,No,No,No,No,Yes,No,No,No,,,,,,,,0,N/A,-97.731559,30.263401,"(30.263401, -97.731559)"
17,3249,1109 Spearson Lane,Green Doors,Community Partnerships for the Homeless,1109 Spearson Lane,"78,745",2,3,3,,Single Family,Rental,Project Completed,2002,2022,20,None,,0,0,3,0,0,0,0,Yes,No,No,No,No,No,No,No,No,No,No,No,No,Yes,No,No,No,No,No,0,0,"23,966.66",0,0,0,0,"23,966.66",N/A,-97.79420218,30.20138457,"(30.20138457, -97.79420218)"
56,3315,110 Chicon Street,Guadalupe Neighborhood Development Corporation,Guadalupe Neighborhood Development Corporation,110 Chicon Street,"78,702",3,2,2,0,Single Family,Rental,Project Completed,2003,2023,20,None,,0,0,0,0,0,2,0,Yes,No,No,No,No,No,No,No,No,No,No,No,No,No,No,No,No,No,No,0,0,0,"65,000.00",0,0,0,"65,000.00",N/A,-97.72453329,30.25794518,"(30.25794518, -97.72453329)"
390,4183,Highland Phase II - North,Austin Community College District,"Redleaf Properties, LLC/Austin Community College District",110 Jacob Fontaine Lane,"78,752",4,222,22,,Multifamily,Rental,Building Permit Issued,,,40,None,0,0,0,0,0,0,22,200,No,No,No,No,No,No,No,No,No,No,No,No,No,No,No,No,No,Yes,No,,,,,,,,0,N/A,-97.714668,30.324758,"(30.324758, -97.714668)"
361,3932,North Shore Apartments (GWTP MDA),TCC/CVI Development Group,"TC Green Water Master Developer, LLC",110 San Antonio Street,"78,701",9,439,50,,Multifamily,Rental,Project Completed,2016,2056,40,None,,0,0,0,0,0,50,389,No,No,No,No,No,No,Yes,No,No,No,No,No,No,No,No,No,No,No,No,,,,,,,,0,N/A,-97.749563,30.265385,"(30.265385, -97.749563)"
55,3312,1112 E 10th Street,Guadalupe Neighborhood Development Corporation,Guadalupe Neighborhood Development Corporation,1112 E 10th Street,"78,702",1,1,1,,Single Family,Rental,Project Completed,2001,2021,20,None,,0,0,0,0,0,1,0,Yes,No,No,No,No,No,No,No,No,No,No,No,No,No,No,No,No,No,No,0,0,0,"25,000.00",0,0,0,"25,000.00",N/A,-97.72826475,30.26820529,"(30.26820529, -97.72826475)"
641,5519,1113 E 9th St (Duplex),Guadalupe Neighborhood Development Corporation,Guadalupe Neighborhood Development Corporation,1113 E 9th St,"78,702",1,1,1,0,Duplex,Rental,Application Received,,,0,None,0,0,0,1,0,0,0,0,Yes,No,No,No,No,No,No,No,No,No,No,No,No,Yes,No,No,No,No,No,,,,,,,,0,N/A,-97.728787,30.26678,"(30.26678, -97.728787)"
403,4407,Jobe House Resubdivision,,Guadalupe Neighborhood Development Corporation,1113 East 9th Street,"78,702",1,4,4,,Single Family,Rental,Certified/Loan Executed,,,5,None,0,0,0,2,0,0,2,0,No,No,No,No,No,No,No,No,No,No,No,No,No,Yes,No,No,No,No,No,,,,,,,,0,N/A,-97.728796,30.266746,"(30.266746, -97.728796)"
146,3528,WBP Apartments,AMTEX,AMTEX,1114 Wells Branch Parkway,"78,660",7,240,240,,Multifamily,Rental,Certified/Loan Executed,,,5,None,,0,0,58,0,0,182,0,No,No,No,No,No,No,No,No,No,No,No,No,No,Yes,No,No,No,No,No,,,,,,,,0,N/A,-97.65996331,30.43953061,"(30.43953061, -97.65996331)"
30,3275,1116 Harvard Street,Blackshear Neighborhood Development Corporation,Blackshear Neighborhood Development Corporation,1116 Harvard Street,"78,702",1,1,1,,Single Family,Rental,Project Completed,2009,2108,99,None,,0,0,0,1,0,0,0,Yes,No,No,No,No,No,No,No,No,No,No,No,No,Yes,No,No,No,No,No,"16,666.66",0,0,"78,750.00",0,0,0,"95,416.66",N/A,-97.71623872,30.26723972,"(30.26723972, -97.71623872)"
122,3507,Lakeside Engineering - Duplexes,Lakeside Engineering,Lakeside Engineering,1123 Walton Lane,"78,721",3,2,1,,Duplex,Rental,Project Completed,2015,2020,5,None,,0,0,0,0,0,1,1,No,No,No,No,No,No,No,No,No,No,No,No,No,Yes,No,No,No,No,No,,,,,,,,0,N/A,-97.687279,30.259234,"(30.259234, -97.687279)"
67,3384,Cross Creek Apartments,TMG - TX Austin II,"The Muholland Group, LLC",1124 Rutland Drive,"78,758",4,200,200,,Multifamily,Rental,Project Cancelled,2014,2054,40,None,,20,0,0,180,0,0,0,Yes,No,No,No,No,No,No,No,No,No,No,No,No,Yes,No,No,No,No,No,,,,,,,,0,N/A,-97.7037204,30.36871135,"(30.36871135, -97.7037204)"
122,5243,Lakeside Engineering - Duplexes,Lakeside Engineering,Lakeside Engineering,1125 Walton Lane,"78,721",3,4,2,0,Duplex,Rental,Project Completed,2017,2022,5,None,0,0,0,0,0,0,2,2,No,No,No,No,No,No,No,No,No,No,No,No,No,Yes,No,No,No,No,No,,,,,,,,0,N/A,-97.687285,30.259463,"(30.259463, -97.687285)"
122,5244,Lakeside Engineering - Duplexes,Lakeside Engineering,Lakeside Engineering,1125 Walton Lane,"78,721",3,2,0,0,Duplex,Rental,Project Completed,,,0,None,0,0,0,0,0,0,0,2,No,No,No,No,No,No,No,No,No,No,No,No,No,Yes,No,No,No,No,No,,,,,,,,0,N/A,-97.687285,30.259463,"(30.259463, -97.687285)"
420,4475,Orchard Plaza,1209 East Apartments/Yellow 52 Investments,,1127 E 52nd Street,"78,723",4,0,0,0,Multifamily,Rental,Certified/Loan Executed,,,15,None,0,0,0,0,0,0,0,0,No,No,No,No,No,No,No,No,No,No,No,No,No,No,No,No,No,No,Yes,,,,,,,,0,N/A,-97.707725,30.30916,"(30.30916, -97.707725)"
58,3321,SOL,Guadalupe Neighborhood Development Corporation,Guadalupe Neighborhood Development Corporation,1129 Altum Street,"78,702",1,2,2,,Duplex,Rental,Project Completed,2009,2049,40,None,,0,0,0,2,0,0,0,Yes,No,No,No,No,No,No,No,No,No,No,No,No,No,No,No,No,No,No,0,0,0,"174,999.99","39,250.00",0,0,"214,249.99",N/A,-97.71731982,30.27039712,"(30.27039712, -97.71731982)"
160,3541,LaMadrid Apartments,LaMadrid Apartments LLC,LaMadrid Apartments LLC,11320 Manchaca Road,"78,748",5,95,83,10,Multifamily,Rental,Project Completed,2018,2058,40,None,,9,0,34,40,0,0,12,Yes,No,No,No,No,No,No,No,No,No,No,No,No,Yes,No,No,No,No,No,0,"3,300,000.00",0,0,0,0,0,"3,300,000.00",9%,-97.82835765,30.16590014,"(30.16590014, -97.82835765)"
58,3323,SOL,Guadalupe Neighborhood Development Corporation,Guadalupe Neighborhood Development Corporation,1133 Altum Street,"78,702",1,2,2,,Duplex,Rental,Project Completed,2009,2049,40,None,,0,0,0,2,0,0,0,Yes,No,No,No,No,No,No,No,No,No,No,No,No,No,No,No,No,No,No,0,0,0,"174,999.99","39,250.00",0,0,"214,249.99",N/A,-97.71731982,30.27039712,"(30.27039712, -97.71731982)"
357,3920,The Residences at The Domain,"EGP Management, L.L.C.","EGP Management, L.L.C.",11400 Domain Drive,"78,758",7,390,39,,Multifamily,Rental,Project Completed,2007,2027,20,None,,0,0,0,0,39,0,351,No,No,No,No,No,No,Yes,No,No,No,No,No,No,Yes,No,No,No,No,No,,,,,,,,0,N/A,-97.72493,30.400623,"(30.400623, -97.72493)"
163,3544,Azul 620,"Austin DMA Housing II, LLC",Austin DMA Housing II,11411 N Ranch Road 620,"78,726",6,120,110,,Multifamily,Rental,Certified/Loan Executed,,,5,None,,11,0,44,55,0,0,10,No,No,No,No,No,No,No,No,No,No,No,No,No,Yes,No,No,No,No,No,,,,,,,,0,N/A,-97.825747,30.451621,"(30.451621, -97.825747)"
130,3515,ThinkEast PUD,ThinkEast Austin MGT,ThinkEast Austin MGT,1141 Shady Lane,"78,721",3,184,0,,Multifamily,Rental,Certified/Loan Executed,,,0,None,,0,0,0,0,0,0,184,No,No,No,No,No,No,No,No,No,No,Yes,No,No,Yes,No,No,No,No,No,,,,,,,,0,N/A,-97.69109856,30.26269988,"(30.26269988, -97.69109856)"
130,4405,1141 Shady Lane Mixed Use,ThinkEast Austin MGT,ThinkEast Austin MGT,1141 Shady Lane,"78,721",3,3,2,,Multifamily,Rental,Building Permit Issued,,,10,None,0,0,0,0,1,0,1,1,No,No,No,No,No,No,No,No,No,No,Yes,No,No,Yes,No,No,No,No,No,,,,,,,,0,N/A,-97.690803,30.262632,"(30.262632, -97.690803)"
110,3751,Summit Oaks,Housing Authority of Travis County,Housing Authority of Travis County,11607 Sierra Nevada,"78,759",10,24,24,,Multifamily,Rental,Project Completed,2018,2023,5,None,,0,0,0,24,0,0,0,No,No,No,No,No,No,No,No,No,No,No,No,No,Yes,No,No,No,No,No,,,,,,,,0,9%,-97.75509,30.421089,"(30.421089, -97.75509)"
47,3304,Elm Ridge Apartments,"Elm Ridge Affordable Partners, Ltd.",Unknown,1161 Harvey Street,"78,702",1,130,130,0,Multifamily,Rental,Project Completed,2010,2109,99,None,,0,0,130,0,0,0,0,Yes,No,Yes,No,No,No,No,No,No,No,No,No,No,No,No,No,No,No,No,"2,500,000.00",0,0,0,0,0,0,"2,500,000.00",4%,-97.70241945,30.27488959,"(30.27488959, -97.70241945)"
424,4508,The Heights at Lamar,Generations Housing Partners LLC,"TX Lamar 2018, Ltd",11630 N Lamar Boulevard,"78,753",7,120,108,0,Multifamily,Rental,Project Cancelled,,,0,None,0,0,0,0,108,0,0,12,No,No,No,No,No,No,No,No,No,No,No,No,No,Yes,No,No,No,No,No,,,,,,,,0,N/A,-97.685709,30.386442,"(30.386442, -97.685709)"
640,5513,Foundation Village,"Foundation Communities, Inc","Foundation Communities, Inc.",11704 and 11706 N Lamar Blvd,"78,753",7,88,88,0,Multifamily,Rental,Application Received,,,0,None,0,18,26,44,0,0,0,0,Yes,No,No,No,No,No,No,No,No,No,No,No,No,Yes,No,No,No,No,No,,,,,,,,0,N/A,-97.684527,30.386674,"(30.386674, -97.684527)"
321,4185,Estancia Villas,SLF III Onion Creek LP,"Estancia Villas, LLC",1200 Estancia Parkway,"78,748",5,312,31,,Multifamily,Rental,Project Completed,2018,2058,40,None,0,0,0,0,31,0,0,281,No,No,No,No,No,No,No,No,No,No,Yes,No,No,No,No,No,No,No,No,,,,,,,,0,N/A,-97.806329,30.123555,"(30.123555, -97.806329)"
335,4465,Jeremiah House,Guadalupe Neighborhood Development Corporation,Guadalupe Neighborhood Development Corporation,1200 Paul Theresa Saldana Street,"78,702",3,35,35,0,Multifamily,Rental,Project Completed,2016,2115,99,None,0,0,0,35,0,0,0,0,Yes,No,No,No,No,No,No,No,No,No,No,No,No,Yes,No,No,No,No,No,"215,833.33","2,000,000.00",0,0,0,0,0,"2,215,833.33",N/A,-97.703014,30.269267,"(30.269267, -97.703014)"
644,5533,1200 W 25th Street,"2501 N Lamar, LLC","2501 N Lamar, LLC",1200 W 25th Street,"78,756",9,119,12,0,Multifamily,Rental,Certified/Loan Executed,,,0,None,0,0,0,0,0,0,12,107,No,No,No,No,No,No,No,No,No,No,No,No,No,No,No,No,No,Yes,No,,,,,,,,0,N/A,-97.75105,30.29015,"(30.29015, -97.75105)"
303,5414,Plaza Saltillo,Endeavor Real Estate Group,Endeavor Real Estate Group,1201 E 5th Street,"78,702",3,162,0,0,Multifamily,Rental,Building Permit Issued,,,0,None,0,0,0,0,0,0,0,162,No,No,No,No,No,No,No,No,No,No,No,No,No,No,No,Yes,No,No,No,,,,,,,,0,N/A,-97.730544,30.263034,"(30.263034, -97.730544)"
48,3305,The Boulevard,UCP Austin Housing I,Easter Seals of Central Texas,1201 Grove Boulevard,"78,741",3,6,6,0,Multifamily,Rental,Affordability Period Expired,2005,2015,10,None,,0,0,6,0,0,0,0,Yes,No,No,No,No,No,No,No,No,No,No,No,No,No,No,No,No,No,No,0,0,"181,717.00",0,0,0,0,"181,717.00",N/A,-97.70402253,30.23419148,"(30.23419148, -97.70402253)"
420,4476,Orchard Plaza,1209 East Apartments/Yellow 52 Investments,,1205 E 52nd Street,"78,723",4,0,0,0,Multifamily,Rental,Certified/Loan Executed,,,15,None,0,0,0,0,0,0,0,0,No,No,No,No,No,No,No,No,No,No,No,No,No,No,No,No,No,No,Yes,,,,,,,,0,N/A,-97.707429,30.30906,"(30.30906, -97.707429)"
335,4464,Guadalupe Saldana - Duplex,Guadalupe Neighborhood Development Corporation,Guadalupe Neighborhood Development Corporation,1208 Paul Theresa Saldana Street,"78,702",3,2,2,,Duplex,Rental,Project Completed,2013,2112,99,None,0,0,0,2,0,0,0,0,Yes,No,No,No,No,No,No,No,No,No,No,No,No,Yes,No,No,No,No,No,"162,333.33",0,"76,923.08",0,0,0,0,"239,256.41",N/A,-97.703096,30.269601,"(30.269601, -97.703096)"
420,4477,1209 East Apartments,1209 East Apartments/Yellow 52 Investments,,1209 E 52nd Street,"78,723",4,0,0,0,Multifamily,Rental,Project Completed,2017,2032,15,None,0,0,0,0,0,0,0,0,No,No,No,No,No,No,No,No,No,No,No,No,No,No,No,No,No,No,Yes,,,,,,,,0,N/A,-97.707146,30.308804,"(30.308804, -97.707146)"
277,3743,1211 Inks Avenue,Guadalupe Neighborhood Development Corporation,Guadalupe Neighborhood Development Corporation,1211 Inks Avenue,"78,702",1,2,2,,Duplex,Rental,Project Completed,2016,2021,5,None,,0,0,0,1,0,1,0,No,No,No,No,No,No,No,No,No,No,No,No,No,Yes,No,No,No,No,No,,,,,,,,0,N/A,-97.727998,30.26597,"(30.26597, -97.727998)"
313,3835,Mark Hart Architecture,,Mark Hart Architecture,1212 E 7th Street,"78,702",1,0,0,,Multifamily,Rental,Project Cancelled,,,0,None,,0,0,0,0,0,0,0,No,No,No,No,No,No,No,No,No,No,No,No,No,No,No,Yes,No,No,No,,,,,,,,0,N/A,-97.729398,30.265108,"(30.265108, -97.729398)"
335,4463,Guadalupe Saldana - Duplex,Guadalupe Neighborhood Development Corporation,Guadalupe Neighborhood Development Corporation,1212 Paul Theresa Saldana Street,"78,702",3,2,2,,Duplex,Rental,Project Completed,2013,2112,99,None,0,0,0,2,0,0,0,0,Yes,No,No,No,No,No,No,No,No,No,No,No,No,Yes,No,No,No,No,No,"162,333.33",0,"76,923.08",0,0,0,0,"239,256.41",N/A,-97.703051,30.269697,"(30.269697, -97.703051)"
68,3385,Skyline Terrace,"Foundation Communities, Inc.","Foundation Communities, Inc.",1212 W Ben White Boulevard,"78,704",5,100,100,0,Multifamily,Rental,Project Completed,2008,2048,40,None,,0,0,100,0,0,0,0,Yes,No,No,No,No,No,No,No,No,No,No,No,No,No,No,No,No,No,No,"1,516,850.00",0,0,"1,118,309.00","881,691.00",0,0,"3,516,850.00",9%,-97.77817812,30.22823613,"(30.22823613, -97.77817812)"
420,4478,Yellowstone Apartments,1209 East Apartments/Yellow 52 Investments,,1215 E 52nd Street,"78,723",4,16,16,0,Multifamily,Rental,Project Completed,2017,2032,15,None,0,0,0,0,16,0,0,0,No,No,No,No,No,No,No,No,No,No,No,No,No,No,No,No,No,No,Yes,,,,,,,,0,N/A,-97.706658,30.30867,"(30.30867, -97.706658)"
74,3392,Edgecreek Condos,Frameworks Community Development Corporation,Frameworks Community Development Corporation,12166 Metric Boulevard,"78,758",7,2,2,,Duplex,Rental,Project Completed,2014,2112,99,None,,0,0,2,0,0,0,0,Yes,No,No,No,No,No,No,No,No,No,No,No,No,No,No,No,No,No,No,0,0,"110,110.66",0,0,0,0,"110,110.66",N/A,-97.69786173,30.40679119,"(30.40679119, -97.69786173)"
335,4462,Guadalupe Saldana - Duplex,Guadalupe Neighborhood Development Corporation,Guadalupe Neighborhood Development Corporation,1216 Paul Theresa Saldana Street,"78,702",3,2,2,,Duplex,Rental,Project Completed,2013,2112,99,None,0,0,0,2,0,0,0,0,Yes,No,No,No,No,No,No,No,No,No,No,No,No,Yes,No,No,No,No,No,"162,333.33",0,"76,923.08",0,0,0,0,"239,256.41",N/A,-97.70301,30.269795,"(30.269795, -97.70301)"
422,4487,Waterloo Terrace,"Foundation Communities, Inc","Foundation Communities, Inc.",12190 N Mopac Expressway,"78,758",7,132,132,27,Multifamily,Rental,Site Plan Under Review,,,40,None,0,27,27,78,0,0,0,0,Yes,No,No,No,No,No,No,No,No,No,No,No,No,Yes,No,No,No,No,No,0,"3,200,000.00",0,0,0,0,0,"3,200,000.00",9%,-97.708737,30.413996,"(30.413996, -97.708737)"
226,3607,Gibson Flats,Ardent Residential,Ardent Residential,1219 S Lamar Boulevard,"78,704",5,95,10,,Multifamily,Rental,Project Completed,2014,2054,40,None,,0,0,0,10,0,0,85,No,No,No,No,No,No,No,No,No,No,No,No,No,No,No,No,No,Yes,No,,,,,,,,0,N/A,-97.76226679,30.25408947,"(30.25408947, -97.76226679)"
335,4461,Guadalupe Saldana - Duplex,Guadalupe Neighborhood Development Corporation,Guadalupe Neighborhood Development Corporation,1220 Paul Theresa Saldana Street,"78,702",3,2,2,0,Duplex,Rental,Project Completed,2013,2112,99,None,0,0,0,2,0,0,0,0,Yes,No,No,No,No,No,No,No,No,No,No,No,No,Yes,No,No,No,No,No,"162,333.33",0,"76,923.08",0,0,0,0,"239,256.41",N/A,-97.702958,30.269889,"(30.269889, -97.702958)"
156,3538,Harris Branch Senior Apartments,"LDG Multifamily, LLC",LDG Multifamily LLC,12433 Dessau Road,"78,754",1,216,216,,Multifamily,Rental,Project Completed,2017,2022,5,None,,0,0,0,216,0,0,0,No,No,No,No,No,No,No,No,No,No,No,No,No,Yes,No,No,No,No,No,,,,,,,,0,4%,-97.64488191,30.38880659,"(30.38880659, -97.64488191)"
652,5563,1311 South Lamar,"Seamless 290 West DE, Ltd and Seamless GCW, Ltd","Seamless 290 West DE, Ltd and Seamless GCW, Ltd","1303, 1311 and 1401 South Lamar Blvd","78,704",5,309,31,0,Multifamily,Rental,Site Plan Under Review,,,0,None,0,0,0,0,31,0,0,278,No,No,No,No,No,No,No,No,No,No,No,No,No,No,No,No,No,Yes,No,,,,,,,,0,N/A,-97.762367,30.253829,"(30.253829, -97.762367)"
291,3771,Kasita Homeless Veteran Housing,"Kasita GL, LLC","Kasita GL, LLC",1304 E 4th Street,"78,702",3,21,21,,Multifamily,Rental,Certified/Loan Executed,,,5,None,,0,0,21,0,0,0,0,No,No,No,No,No,No,No,No,No,No,No,No,No,Yes,No,No,No,No,No,,,,,,,,0,N/A,-97.729743,30.262337,"(30.262337, -97.729743)"
5,3228,Cornerstone,Mary Lee Community,Mary Lee Foundation,1322 Lamar Square Drive,"78,704",5,30,30,0,Multifamily,Rental,Project Completed,2002,2022,20,None,,0,0,30,0,0,0,0,Yes,No,No,No,No,No,No,No,No,No,No,No,No,Yes,No,No,No,No,No,0,0,0,"1,009,502.00",0,0,0,"1,009,502.00",N/A,-97.76422389,30.25530621,"(30.25530621, -97.76422389)"
6,3229,The Willows,Mary Lee Community,Mary Lee Foundation,1330 Lamar Square Drive,"78,704",5,64,64,0,Multifamily,Rental,Project Completed,2010,2050,40,None,,32,0,28,0,0,4,0,Yes,No,No,No,No,No,No,No,No,No,No,No,No,Yes,No,No,No,No,No,"2,250,000.00",0,0,0,0,0,0,"2,250,000.00",N/A,-97.76503931,30.2544562,"(30.2544562, -97.76503931)"
317,3840,South Shore Disctrict Apartments (South Shore PUD),Grayco Town Lake Investment 2007 L.P.,Grayco Partners,1333 Shore District Drive,"78,741",4,500,13,,Multifamily,Rental,Project Completed,2014,2054,40,Due,"2,038,666.00",0,0,0,13,0,0,487,No,No,No,No,No,No,No,No,No,No,Yes,No,No,No,No,No,No,No,No,,,,,,,,0,N/A,-97.727183,30.243505,"(30.243505, -97.727183)"
41,3298,Legacy Apartments,Mary Lee Community,Mary Lee Foundation,1340 Lamar Square Drive,"78,704",5,40,40,0,Multifamily,Rental,Project Completed,2013,2112,99,None,,0,0,36,0,0,4,0,Yes,No,No,No,No,No,No,No,No,No,No,No,No,Yes,No,No,No,No,No,0,0,0,"675,000.00",0,0,0,"675,000.00",N/A,-97.76420276,30.25473096,"(30.25473096, -97.76420276)"
136,3520,Merritt Lake Line Station,"DDC Merritt Lake Line Station, Ltd.",DDC Merritt Lake Line Station,1350 Sonny Drive,"78,641",7,210,106,,Multifamily,Rental,Certified/Loan Executed,,,5,None,,0,0,0,106,0,0,104,No,No,No,No,No,No,No,No,No,No,No,No,No,Yes,No,No,No,No,No,,,,,,,,0,N/A,-97.8512182,30.47806322,"(30.47806322, -97.8512182)"
72,3389,Lakeline Station,"Foundation Communities, Inc.","Foundation Communities, Inc.",13635 Rutledge Spur,"78,717",6,128,128,13,Multifamily,Rental,Project Completed,2014,2054,40,None,,13,0,64,51,0,0,0,Yes,No,No,No,No,No,No,No,No,No,No,No,No,Yes,No,No,No,No,No,0,"2,975,000.00",0,"294,820.00",0,0,0,"3,269,820.00",9%,-97.78034499,30.47625308,"(30.47625308, -97.78034499)"
648,5558,Lakeline Station Phase II,"Foundation Communities, Inc.","Foundation Communities, Inc.",13653 Rutledge Spur,"78,717",6,140,140,0,Multifamily,Rental,Certified/Loan Executed,,,0,None,0,14,0,42,84,0,0,0,Yes,No,No,No,No,No,No,No,No,No,No,No,No,Yes,No,No,No,No,No,,,,,,,,0,N/A,-97.78152,30.477898,"(30.477898, -97.78152)"
46,3303,Marshall Apartments,Eureka Holdings,"Marshall Affordable Partners, Ltd.",1401 E 12th Street,"78,702",1,100,100,0,Multifamily,Rental,Project Completed,2011,2110,99,None,,0,0,100,0,0,0,0,Yes,No,No,No,No,No,No,No,No,No,No,No,No,No,No,No,No,No,No,"2,500,000.00",0,0,0,0,0,0,"2,500,000.00",N/A,-97.72483049,30.27270376,"(30.27270376, -97.72483049)"
240,3621,The Seville on 4th Street,JCI Residential,JCI Residential,1401 E 4th Street,"78,702",3,27,3,,Multifamily,Rental,Project Completed,2014,2054,40,None,,0,0,0,3,0,0,24,No,No,No,No,No,No,No,No,No,No,No,No,No,No,No,Yes,No,No,No,,,,,,,,0,N/A,-97.72924445,30.26161922,"(30.26161922, -97.72924445)"
359,3930,ACDDC - Alley Flat,Lorri Haden,Austin Community Design and Development Center,1406 Ruth Avenue,"78,757",7,1,1,,Single Family,Rental,Project Completed,2017,2022,5,None,,0,0,0,0,0,1,0,No,No,No,No,No,No,No,No,No,No,No,No,No,Yes,No,No,No,No,No,,,,,,,,0,N/A,-97.728433,30.338875,"(30.338875, -97.728433)"
229,3610,Post South Lamar 2,"Post S Lamar II, LLC","Post S Lamar II, LLC",1414 S Lamar Boulevard,"78,704",5,350,35,,Multifamily,Rental,Project Completed,2018,2058,40,None,,0,0,0,35,0,0,315,No,No,No,No,No,No,No,No,No,No,No,No,No,No,No,No,No,Yes,No,,,,,,,,0,N/A,-97.76384153,30.25292514,"(30.25292514, -97.76384153)"
319,3844,Heights on Parmer Phase Two,"Pedcor Investments-2016-CLVIII, LP","Pedcor Investments-2016-CLVIII, LP",1500 E Parmer Lane,"78,753",7,80,80,,Multifamily,Rental,Building Permit Issued,,,5,None,,0,0,0,80,0,0,0,No,No,No,No,No,No,No,No,No,No,No,No,No,Yes,No,No,No,No,No,,,,,,,,0,4%,-97.650793,30.390823,"(30.390823, -97.650793)"
125,3510,Heights on Parmer,"Pedcor Investments 2012-CXXX, LP","Pedcor Investments 2012-CXXX, LP",1500 Parmer Lane,"78,727",7,252,252,,Multifamily,Rental,Project Completed,2016,2021,5,None,,0,0,0,252,0,0,0,No,No,No,No,No,No,No,No,No,No,No,No,No,Yes,No,No,No,No,No,,,,,,,,0,4%,-97.65173237,30.39047199,"(30.39047199, -97.65173237)"
221,3602,Post South Lamar,"Post Properties, Inc.",Post Properties,1500 S Lamar Boulevard,"78,704",5,298,30,,Multifamily,Rental,Project Completed,2013,2053,40,None,,0,0,0,0,0,30,268,No,No,No,No,No,No,No,No,No,No,No,No,No,No,No,No,No,Yes,No,,,,,,,,0,N/A,-97.76452548,30.25255817,"(30.25255817, -97.76452548)"
350,3897,Harris Ridge Apartments,"The NRP Group, LLC","The NRP Group, LLC",1501 E Howard Lane,"78,754",7,324,324,,Multifamily,Rental,Project Completed,2019,2024,5,None,,0,0,6,318,0,0,0,No,No,No,No,No,No,No,No,No,No,No,No,No,Yes,No,No,No,No,No,,,,,,,,0,4%,-97.643651,30.406351,"(30.406351, -97.643651)"
43,3300,Benjamin Todd Apartments,NMF VII,Austin Travis County Integral Care,1507 W 39th 1/2 Street,"78,756",10,21,21,0,Multifamily,Rental,Affordability Period Expired,2006,2016,10,None,,0,0,21,0,0,0,0,Yes,No,No,No,No,No,No,No,No,No,No,No,No,No,No,No,No,No,No,0,0,"250,000.00",0,0,0,0,"250,000.00",N/A,-97.74706308,30.30929943,"(30.30929943, -97.74706308)"
376,3968,Wheless Manor Apartments,"DeLoach Property Interests, Inc","DeLoach Property Interests, Inc",1512 Wheless Lane,"78,723",1,32,16,,Multifamily,Rental,Project Cancelled,,,0,None,0,0,0,16,0,0,0,0,Yes,No,No,No,No,No,No,No,No,No,No,No,No,Yes,No,No,No,No,No,,,,,,,,0,N/A,-97.692018,30.320078,"(30.320078, -97.692018)"
329,3867,SafePlace 14 Unit Expansion,Safeplace,SafePlace,1515 Grove Blvd,"78,741",3,14,14,0,Multifamily,Rental,Project Completed,2001,2021,20,None,,0,0,14,0,0,0,0,Yes,No,No,No,No,No,No,No,No,No,No,No,No,No,No,No,No,No,No,0,0,0,0,"500,000.00",0,0,"500,000.00",N/A,-97.705841,30.231371,"(30.231371, -97.705841)"
645,5534,Fairfield at South Lamar,FF Realty IV LLC,FF Realty IV LLC,1515 South Lamar Blvd,"78,704",5,328,33,0,Multifamily,Rental,Site Plan Under Review,,,0,None,0,0,0,0,33,0,0,295,No,No,No,No,No,No,No,No,No,No,No,No,No,No,No,No,No,Yes,No,,,,,,,,0,N/A,-97.76444,30.25154,"(30.25154, -97.76444)"
414,4439,4 East,CC Third and Comal LP,CC Third and Comal LP,1600 E 4th Street,"78,702",3,0,0,,Multifamily,Rental,Building Plan Under Review,,,0,Pending,"352,000.00",0,0,0,0,0,0,0,No,No,No,No,No,No,No,No,No,No,No,No,No,No,No,Yes,No,No,No,,,,,,,,0,N/A,-97.72708,30.261435,"(30.261435, -97.72708)"
619,5454,Heritage Heights,"Austin Inner-City Redevelopment Phase I, Ltd.",Unknown,1600 E 9th Street,"78,702",1,1,1,0,Single Family,Rental,Project Completed,1993,2023,30,None,0,0,0,0,1,0,0,0,Yes,No,No,No,No,No,No,No,No,No,No,No,No,No,No,No,No,No,No,,,,,,,,0,9%,-97.725015,30.265715,"(30.265715, -97.725015)"
101,3487,Riverside Meadows Apartments,"Riverside Meadows, Ltd.",Unknown,1601 Montopolis Drive,"78,741",3,240,240,,Multifamily,Rental,Project Completed,2001,2021,20,None,,0,0,0,240,0,0,0,No,No,No,No,No,No,No,No,No,No,No,No,No,No,No,No,No,No,No,,,,,,,,0,4%,-97.70116657,30.2277183,"(30.2277183, -97.70116657)"
619,5453,Heritage Heights,"Austin Inner-City Redevelopment Phase I, Ltd.",Unknown,1602 E 9th Street,"78,702",1,1,1,0,Single Family,Rental,Project Completed,1993,2023,30,None,0,0,0,0,1,0,0,0,Yes,No,No,No,No,No,No,No,No,No,No,No,No,No,No,No,No,No,No,,,,,,,,0,9%,-97.724932,30.265855,"(30.265855, -97.724932)"
619,5444,Heritage Heights,"Austin Inner-City Redevelopment Phase I, Ltd.",Unknown,1603 E 10th Street,"78,702",1,1,1,0,Single Family,Rental,Project Completed,1993,2023,30,None,0,0,0,0,1,0,0,0,Yes,No,No,No,No,No,No,No,No,No,No,No,No,No,No,No,No,No,No,,,,,,,,0,9%,-97.724708,30.266283,"(30.266283, -97.724708)"
619,5449,Heritage Heights,"Austin Inner-City Redevelopment Phase I, Ltd.",Unknown,1604 E 10th Street,"78,702",1,1,1,0,Single Family,Rental,Project Completed,1993,2023,30,None,0,0,0,0,1,0,0,0,Yes,No,No,No,No,No,No,No,No,No,No,No,No,No,No,No,No,No,No,,,,,,,,0,9%,-97.724337,30.266652,"(30.266652, -97.724337)"
619,5445,Heritage Heights,"Austin Inner-City Redevelopment Phase I, Ltd.",Unknown,1605 E 10th Street,"78,702",1,1,1,0,Single Family,Rental,Project Completed,1993,2023,30,None,0,0,0,0,1,0,0,0,Yes,No,No,No,No,No,No,No,No,No,No,No,No,No,No,No,No,No,No,,,,,,,,0,9%,-97.724673,30.266166,"(30.266166, -97.724673)"
619,5455,Heritage Heights,"Austin Inner-City Redevelopment Phase I, Ltd.",Unknown,1605 E 9th Street,"78,702",1,1,1,0,Single Family,Rental,Project Completed,1993,2023,30,None,0,0,0,0,1,0,0,0,Yes,No,No,No,No,No,No,No,No,No,No,No,No,No,No,No,No,No,No,,,,,,,,0,9%,-97.724973,30.26536,"(30.26536, -97.724973)"
619,5446,Heritage Heights,"Austin Inner-City Redevelopment Phase I, Ltd.",Unknown,1607 E 10th Street,"78,702",1,1,1,0,Single Family,Rental,Project Completed,1993,2023,30,None,0,0,0,0,1,0,0,0,Yes,No,No,No,No,No,No,No,No,No,No,No,No,No,No,No,No,No,No,,,,,,,,0,9%,-97.724503,30.266121,"(30.266121, -97.724503)"
619,5450,Heritage Heights,"Austin Inner-City Redevelopment Phase I, Ltd.",Unknown,1607 E 10th Street,"78,702",1,1,1,0,Single Family,Rental,Project Completed,1993,2023,30,None,0,0,0,0,1,0,0,0,Yes,No,No,No,No,No,No,No,No,No,No,No,No,No,No,No,No,No,No,,,,,,,,0,9%,-97.724505,30.266118,"(30.266118, -97.724505)"
619,5456,Heritage Heights,"Austin Inner-City Redevelopment Phase I, Ltd.",Unknown,1607 E 9th Street,"78,702",1,1,1,0,Single Family,Rental,Project Completed,1993,2023,30,None,0,0,0,0,1,0,0,0,Yes,No,No,No,No,No,No,No,No,No,No,No,No,No,No,No,No,No,No,,,,,,,,0,9%,-97.724877,30.265309,"(30.265309, -97.724877)"
411,4435,Tricia & David Ciccocioppo (Homeowners) -Alley Flat,Tricia & David Ciccocioppo,Austin Community Design and Development Center,1608 Cedar Avenue,"78,702",1,1,1,,ADU,Rental,Project Completed,2019,2024,5,None,0,0,0,0,0,0,1,0,No,No,No,No,No,No,No,No,No,No,No,No,No,Yes,No,No,No,No,No,,,,,,,,0,N/A,-97.714054,30.278448,"(30.278448, -97.714054)"
619,5448,Heritage Heights,"Austin Inner-City Redevelopment Phase I, Ltd.",Unknown,1608 E 10th Street,"78,702",1,1,1,0,Single Family,Rental,Project Completed,1993,2023,30,None,0,0,0,0,1,0,0,0,Yes,No,No,No,No,No,No,No,No,No,No,No,No,No,No,No,No,No,No,,,,,,,,0,9%,-97.724124,30.266574,"(30.266574, -97.724124)"
619,5451,Heritage Heights,"Austin Inner-City Redevelopment Phase I, Ltd.",Unknown,1608 E 9th Street,"78,702",1,1,1,0,Single Family,Rental,Project Completed,1993,2023,30,None,0,0,0,0,1,0,0,0,Yes,No,No,No,No,No,No,No,No,No,No,No,No,No,No,No,No,No,No,,,,,,,,0,9%,-97.724707,30.265298,"(30.265298, -97.724707)"
619,5442,Heritage Heights,"Austin Inner-City Redevelopment Phase I, Ltd.",Unknown,1609 E 11th Street,"78,702",1,1,1,0,Single Family,Rental,Project Completed,1993,2023,30,None,0,0,0,0,1,0,0,0,Yes,No,No,No,No,No,No,No,No,No,No,No,No,No,No,No,No,No,No,,,,,,,,0,9%,-97.72386,30.267028,"(30.267028, -97.72386)"
619,5457,Heritage Heights,"Austin Inner-City Redevelopment Phase I, Ltd.",Unknown,1609 E 9th Street,"78,702",1,1,1,0,Single Family,Rental,Project Completed,1993,2023,30,None,0,0,0,0,1,0,0,0,Yes,No,No,No,No,No,No,No,No,No,No,No,No,No,No,No,No,No,No,,,,,,,,0,9%,-97.724708,30.265297,"(30.265297, -97.724708)"
619,5447,Heritage Heights,"Austin Inner-City Redevelopment Phase I, Ltd.",Unknown,1610 E 10th Street,"78,702",1,1,1,0,Single Family,Rental,Project Completed,1993,2023,30,None,0,0,0,0,1,0,0,0,Yes,No,No,No,No,No,No,No,No,No,No,No,No,No,No,No,No,No,No,,,,,,,,0,9%,-97.723987,30.266482,"(30.266482, -97.723987)"
619,5443,Heritage Heights,"Austin Inner-City Redevelopment Phase I, Ltd.",Unknown,1611 E 11th Street,"78,702",1,1,1,0,Single Family,Rental,Project Completed,1993,2023,30,None,0,0,0,0,1,0,0,0,Yes,No,No,No,No,No,No,No,No,No,No,No,No,No,No,No,No,No,No,,,,,,,,0,9%,-97.7237,30.266957,"(30.266957, -97.7237)"
356,3918,Candela,Transwestern,Transwestern,1614 E 6th Street,"78,702",3,115,20,,Multifamily,Rental,Project Completed,,,40,None,,0,0,0,20,0,0,95,No,No,No,No,No,No,No,No,No,No,No,No,No,No,No,Yes,No,No,No,,,,,,,,0,N/A,-97.725487,30.26298,"(30.26298, -97.725487)"
128,3513,Rental - SF,Virginia Webb,"Virginia Webb, Owner",1616 Canterbury Street,"78,702",3,1,1,,Single Family,Rental,Affordability Period Expired,2013,2018,5,None,,0,0,0,0,0,1,0,No,No,No,No,No,No,No,No,No,No,No,No,No,Yes,No,No,No,No,No,,,,,,,,0,N/A,-97.72795259,30.25637842,"(30.25637842, -97.72795259)"
619,5462,Heritage Heights,"Austin Inner-City Redevelopment Phase I, Ltd.",Unknown,1617 E 10th Street,"78,702",1,1,1,0,Single Family,Rental,Affordability Period Expired,1993,2023,30,None,0,0,0,0,1,0,0,0,Yes,No,No,No,No,No,No,No,No,No,No,No,No,No,No,No,No,No,No,,,,,,,,0,9%,-97.723837,30.265945,"(30.265945, -97.723837)"
619,5463,Heritage Heights,"Austin Inner-City Redevelopment Phase I, Ltd.",Unknown,1619 E 10th Street,"78,702",1,1,1,0,Single Family,Rental,Project Completed,1993,2023,30,None,0,0,0,0,1,0,0,0,Yes,No,No,No,No,No,No,No,No,No,No,No,No,No,No,No,No,No,No,,,,,,,,0,9%,-97.72366,30.265931,"(30.265931, -97.72366)"
371,3958,AMLI - South Shore Phase I,"1620 East Riverside Drive, LLC",Amli Residential,1620 E Riverside Drive,"78,741",9,375,19,,Multifamily,Rental,Project Completed,2010,2050,40,None,0,0,0,0,0,0,19,356,No,No,No,No,No,No,No,No,No,No,No,No,No,No,No,No,No,Yes,No,,,,,,,,0,N/A,-97.730066,30.245117,"(30.245117, -97.730066)"
371,4046,AMLI South Shore Phase II,"1620 East Riverside Drive, LLC",Amli Residential,1620 E Riverside Drive,"78,741",9,75,4,,Multifamily,Rental,Building Permit Issued,,,40,None,0,0,0,0,0,0,4,71,No,No,No,No,No,No,No,No,No,No,No,No,No,No,No,No,No,Yes,No,,,,,,,,0,N/A,-97.730198,30.245229,"(30.245229, -97.730198)"
619,5458,Heritage Heights,"Austin Inner-City Redevelopment Phase I, Ltd.",Unknown,1621 E 11th Street,"78,702",1,1,1,0,Single Family,Rental,Project Completed,1993,2023,30,None,0,0,0,0,1,0,0,0,Yes,No,No,No,No,No,No,No,No,No,No,No,No,No,No,No,No,No,No,,,,,,,,0,9%,-97.723149,30.266767,"(30.266767, -97.723149)"
243,3624,Eastside Village,Transwestern Development Company,Transwestern,1621 E 6th Street,"78,702",3,346,66,,Multifamily,Rental,Project Completed,2017,2057,40,None,,0,0,0,66,0,0,280,No,No,No,No,No,No,No,No,No,No,No,No,No,No,No,Yes,No,No,No,,,,,,,,0,N/A,-97.72548725,30.26251461,"(30.26251461, -97.72548725)"
351,3899,Waters at Ft Dessau,Atlantic Housing Foundation,Atlantic Housing Foundation,1621 Fish Lane,"78,754",7,240,192,,Multifamily,Rental,Project Cancelled,,,5,None,,0,8,0,184,0,0,48,No,No,No,No,No,No,No,No,No,No,No,No,No,Yes,No,No,No,No,No,,,,,,,,0,N/A,-97.639051,30.40531,"(30.40531, -97.639051)"
619,5467,Heritage Heights,"Austin Inner-City Redevelopment Phase I, Ltd.",Unknown,1622 E 10th Street,"78,702",1,1,1,0,Single Family,Rental,Project Completed,1993,2023,30,None,0,0,0,0,1,0,0,0,Yes,No,No,No,No,No,No,No,No,No,No,No,No,No,No,No,No,No,No,,,,,,,,0,9%,-97.723201,30.266259,"(30.266259, -97.723201)"
619,5461,Heritage Heights,"Austin Inner-City Redevelopment Phase I, Ltd.",Unknown,1623 E 11th Steet,"78,723",1,1,1,0,Single Family,Rental,Project Completed,1993,2023,30,None,0,0,0,0,1,0,0,0,Yes,No,No,No,No,No,No,No,No,No,No,No,No,No,No,No,No,No,No,,,,,,,,0,9%,-97.723054,30.266717,"(30.266717, -97.723054)"
619,5466,Heritage Heights,"Austin Inner-City Redevelopment Phase I, Ltd.",Unknown,1624 E 10th Street,"78,702",1,1,1,0,Single Family,Rental,Project Completed,1993,2023,30,None,0,0,0,0,1,0,0,0,Yes,No,No,No,No,No,No,No,No,No,No,No,No,No,No,No,No,No,No,,,,,,,,0,9%,-97.723095,30.266176,"(30.266176, -97.723095)"
619,5464,Heritage Heights,"Austin Inner-City Redevelopment Phase I, Ltd.",Unknown,1625 E 10th Street,"78,702",1,1,1,0,Single Family,Rental,Project Completed,1993,2023,30,None,0,0,0,0,1,0,0,0,Yes,No,No,No,No,No,No,No,No,No,No,No,No,No,No,No,No,No,No,,,,,,,,0,9%,-97.723292,30.2657,"(30.2657, -97.723292)"
619,5459,Heritage Heights,"Austin Inner-City Redevelopment Phase I, Ltd.",Unknown,1625 E 11th Street,"78,702",1,1,1,0,Single Family,Rental,Project Completed,1993,2023,30,None,0,0,0,0,1,0,0,0,Yes,No,No,No,No,No,No,No,No,No,No,No,No,No,No,No,No,No,No,,,,,,,,0,9%,-97.722927,30.266657,"(30.266657, -97.722927)"
619,5468,Heritage Heights,"Austin Inner-City Redevelopment Phase I, Ltd.",Unknown,1626 E 10th Street,"78,702",1,1,1,0,Single Family,Rental,Project Completed,1993,2023,30,None,0,0,0,0,1,0,0,0,Yes,No,No,No,No,No,No,No,No,No,No,No,No,No,No,No,No,No,No,,,,,,,,0,9%,-97.723066,30.266016,"(30.266016, -97.723066)"
619,5460,Heritage Heights,"Austin Inner-City Redevelopment Phase I, Ltd.",Unknown,1627 E 11th Street,"78,723",1,1,1,0,Single Family,Rental,Project Completed,1993,2023,30,None,0,0,0,0,1,0,0,0,Yes,No,No,No,No,No,No,No,No,No,No,No,No,No,No,No,No,No,No,,,,,,,,0,9%,-97.722927,30.266657,"(30.266657, -97.722927)"
302,3818,Indie Apartments,Transwestern,Transwestern,1630 E 6th Street,"78,702",3,139,15,,Multifamily,Rental,Project Completed,2018,2058,40,None,,0,0,0,15,0,0,124,No,No,No,No,No,No,No,No,No,No,No,No,No,No,No,Yes,No,No,No,,,,,,,,0,N/A,-97.724864,30.262479,"(30.262479, -97.724864)"
412,4436,Pathways at Chalmers Court - South,Housing Authority of the City of Austin,Housing Authority of the City of Austin,1638 E 2nd Street,"78,702",3,87,87,,Multifamily,Rental,Building Permit Issued,,,5,None,0,0,0,0,87,0,0,0,No,No,No,No,No,No,No,No,No,No,No,No,No,Yes,No,No,No,No,No,,,,,,,,0,4%,-97.726547,30.259144,"(30.259144, -97.726547)"
338,3884,East Avenue Apartments,"East Avenue Town Lake, LLC","East Avenue Town Lake, LLC",16 N IH 35 SVRD SB,"78,701",9,223,7,,Multifamily,Rental,Site Plan Under Review,,,40,Pending,"546,070.00",0,0,0,0,0,7,216,No,No,No,No,Yes,No,No,No,No,No,No,No,Yes,No,No,No,No,No,No,,,,,,,,0,N/A,-97.736654,30.252783,"(30.252783, -97.736654)"
241,3622,Eastside Station (fka Saltillo Station),CRP Pollack Eastside Station Owner - EIN 82-2844309,Flournoy Development,1700 E 4th Street,"78,702",3,332,51,,Multifamily,Rental,Project Completed,2017,2057,40,None,,0,0,51,0,0,0,281,No,No,No,No,No,No,No,No,No,No,No,No,No,No,No,Yes,No,No,No,,,,,,,,0,N/A,-97.72514289,30.26085182,"(30.26085182, -97.72514289)"
654,5565,Anderson Creek Apartments,McDowell Housing Partners,McDowell Housing Partners,1700 E Anderson Lane,"78,752",7,96,96,0,Multifamily,Rental,Application Received,,,0,None,0,0,0,60,11,0,25,0,Yes,No,No,No,No,No,No,No,No,No,No,No,No,Yes,No,No,No,No,No,,,,,,,,0,4%,-97.68281,30.32985,"(30.32985, -97.68281)"
31,3280,1700 Martin Luther King Jr Boulevard,Blackland Community Development Corporation,Blackland Community Development Corporation,1700 Martin Luther King Jr Boulevard,"78,722",1,2,2,,Duplex,Rental,Project Completed,2003,2023,20,None,,0,0,0,2,0,0,0,Yes,No,No,No,No,No,No,No,No,No,No,No,No,No,No,No,No,No,No,0,0,0,"73,333.32",0,0,0,"73,333.32",N/A,-97.723113,30.27991322,"(30.27991322, -97.723113)"
409,4433,1700 Willow Creek Drive,"Breckenridge Group Riverside Multifamily, LP (Aspen Heights)","Breckenridge Group Riverside Multifamily, LP (Aspen Heights)",1700 Willow Creek Drive,"78,741",3,323,26,,Multifamily,Rental,Site Plan Under Review,,,40,None,0,0,0,0,26,0,0,297,No,No,No,No,No,Yes,No,No,No,No,No,No,No,No,No,No,No,No,No,,,,,,,,0,N/A,-97.726827,30.237028,"(30.237028, -97.726827)"
304,3820,1703 E 22nd St,Blackland Community Development Corporation,Blackland Community Development Corporation,1703 E 22nd Street,"78,722",1,1,1,,Single Family,Rental,Building Plan Approved,,,5,None,,0,0,1,0,0,0,0,No,No,No,No,No,No,No,No,No,No,No,No,No,Yes,No,No,No,No,No,,,,,,,,0,N/A,-97.72338,30.282275,"(30.282275, -97.72338)"
30,3278,1705 Rosewood Avenue,Blackshear Neighborhood Development Corporation,Blackshear Neighborhood Development Corporation,1705 Rosewood Avenue,"78,702",1,2,2,,Duplex,Rental,Project Completed,2009,2108,99,None,,1,0,1,0,0,0,0,Yes,No,No,No,No,No,No,No,No,No,No,No,No,Yes,No,No,No,No,No,"33,333.33",0,0,"157,500.00",0,0,0,"190,833.33",N/A,-97.72613994,30.26921179,"(30.26921179, -97.72613994)"
102,3488,Rutland Place Apartments,San Antonio Alternative Housing Corporation No. 5,Unknown,1711 Rutland Drive,"78,758",4,294,265,,Multifamily,Rental,Affordability Period Expired,1998,2018,20,None,,0,0,0,118,0,147,29,No,No,No,No,No,No,No,No,No,No,No,No,No,No,No,No,No,No,No,,,,,,,,0,N/A,-97.71173969,30.37521512,"(30.37521512, -97.71173969)"
292,3772,The Rail at MLK,1800 Alexander LP,1800 Alexander LP,1800 Alexander Avenue,"78,702",1,235,58,3,Multifamily,Rental,Certified/Loan Executed,,,99,None,,3,3,52,0,0,0,167,Yes,No,No,No,No,No,No,No,No,No,No,No,No,Yes,No,No,No,No,No,0,"2,500,000.00",0,0,0,0,0,"2,500,000.00",N/A,-97.709385,30.27815,"(30.27815, -97.709385)"
380,3973,Aria Grand,"Aria Grand, LLC","Saigebrook Development, LLC",1800 S IH 35,"78,704",9,70,60,7,Multifamily,Rental,Certified/Loan Executed,,,40,None,0,6,0,24,30,0,0,10,Yes,No,No,No,No,No,No,No,No,No,No,No,No,Yes,No,No,No,No,No,0,"1,500,000.00",0,0,0,0,0,"1,500,000.00",9%,-97.738699,30.238642,"(30.238642, -97.738699)"
387,4047,1801 E 6th Street,"RRZ E 6th, LP",Big Red Dog,1801 E 6th Street,"78,702",3,0,0,,Multifamily,Rental,Project Completed,,,0,Paid,"491,139.00",0,0,0,0,0,0,0,No,No,No,No,No,No,No,No,No,No,No,No,No,No,No,Yes,No,No,No,,,,,,,,0,N/A,-97.723296,30.261905,"(30.261905, -97.723296)"
34,3291,1803 E 20th Street,Blackland Community Development Corporation,Blackland Community Development Corporation,1803 E 20th Street,"78,722",1,8,8,0,Multifamily,Rental,Project Completed,2011,2026,15,None,,0,0,8,0,0,0,0,Yes,No,No,No,No,No,No,No,No,No,No,No,No,No,No,No,No,No,No,0,0,0,"491,919.00",0,0,0,"491,919.00",N/A,-97.7219761,30.28050064,"(30.28050064, -97.7219761)"
31,3283,1803 E 22nd Steet,Blackland Community Development Corporation,Blackland Community Development Corporation,1803 E 22nd Steet,"78,722",1,2,2,,Duplex,Rental,Project Completed,2003,2023,20,None,,0,0,1,0,0,1,0,Yes,No,No,No,No,No,No,No,No,No,No,No,No,No,No,No,No,No,No,0,0,0,"73,333.33",0,0,0,"73,333.33",N/A,-97.72241774,30.2825633,"(30.2825633, -97.72241774)"
31,3281,1804 Martin Luther King Jr Boulevard,Blackland Community Development Corporation,Blackland Community Development Corporation,1804 Martin Luther King Jr Boulevard,"78,722",1,1,1,,Single Family,Rental,Project Completed,2003,2023,20,None,,0,0,1,0,0,0,0,Yes,No,No,No,No,No,No,No,No,No,No,No,No,No,No,No,No,No,No,0,0,0,"36,666.67",0,0,0,"36,666.67",N/A,-97.72184558,30.28002492,"(30.28002492, -97.72184558)"
39,3296,Carol's House,Accessible Housing Austin!,Accessible Housing Austin!,1805 Heatherglen Lane,"78,758",7,1,1,0,Single Family,Rental,Project Completed,2009,2108,99,None,,0,0,1,0,0,0,0,Yes,No,No,No,No,No,No,No,No,No,No,No,No,No,No,No,No,No,No,"100,000.00",0,0,"40,810.00",0,0,0,"140,810.00",N/A,-97.70164239,30.39517141,"(30.39517141, -97.70164239)"
423,4507,Cambrian East Riverside,"Neo East Riverside, LLC",Cambrian East Riverside LP,1806 Clubview Avenue,"78,741",3,65,55,0,Multifamily,Rental,Site Plan Under Review,,,0,None,0,6,0,22,27,0,0,10,No,No,No,No,No,No,No,No,No,No,No,No,No,Yes,No,No,No,No,No,,,,,,,,0,9%,-97.705716,30.227057,"(30.227057, -97.705716)"
155,3537,10th Street Alley Flat,Clarskville Community Development Corporation,Clarksville Community Development Corporation,1817 W 10th Street,"78,703",9,1,1,0,ADU,Rental,Project Completed,2015,2114,99,None,,0,0,1,0,0,0,0,Yes,No,No,No,No,No,No,No,No,No,No,No,No,Yes,No,No,No,No,No,0,0,0,"108,200.00",0,0,0,"108,200.00",N/A,-97.7651196,30.28133403,"(30.28133403, -97.7651196)"
419,4456,Fannie Mae Stewart  Village,Blackland Community Development Corporation,Blackland Community Development Corporation,1900 E 22nd Street,"78,722",1,8,8,3,Multifamily,Rental,Certified/Loan Executed,,,15,None,0,0,0,8,0,0,0,0,Yes,No,No,No,No,No,No,No,No,No,No,No,No,Yes,No,No,No,No,No,0,0,0,"40,000.00",0,0,0,"40,000.00",N/A,-97.721748,30.283095,"(30.283095, -97.721748)"
347,3902,Amli at Mueller,"Catellus Austin, LLC",Catellus Austin LLC,1900 Simond Avenue,"78,723",9,279,42,,Multifamily,Rental,Project Completed,2015,2065,50,None,,0,0,0,42,0,0,237,No,No,No,No,No,No,Yes,No,No,No,No,No,No,Yes,No,No,No,No,No,,,,,,,,0,N/A,-97.703698,30.29717,"(30.29717, -97.703698)"
214,3595,Villas on San Gabriel II,2410 San Gabriel LP,2410 San Gabriel LP,2414 San Gabriel Street,"78,705",9,92,9,,Multifamily,Rental,Project Completed,2018,2058,40,Paid,"174,596.00",0,0,0,9,0,0,83,No,No,No,No,No,No,No,No,No,No,No,No,No,Yes,No,No,Yes,No,No,,,,,,,,0,N/A,-97.74789193,30.28884358,"(30.28884358, -97.74789193)"
212,3593,Skyloft,23 Nueces LLC,23 Nueces LLC,507 W 23rd Street,"78,705",9,674,68,,Multifamily,Rental,Project Completed,2018,2058,40,Paid,"216,931.00",0,0,0,68,0,0,609,No,No,No,No,No,No,No,No,No,No,No,No,No,Yes,No,No,Yes,No,No,,,,,,,,0,N/A,-97.743507,30.286358,"(30.286358, -97.743507)"
318,3841,Sunfield PUD,,"A&M Option 541, LP",1901 Turnersville Road,"78,610",5,"1,751",175,,Multifamily,Rental,Certified/Loan Executed,,,40,None,,0,0,0,175,0,0,"1,576",No,No,No,No,No,No,No,No,No,No,Yes,No,No,No,No,No,No,No,No,,,,,,,,0,N/A,-97.773264,30.088615,"(30.088615, -97.773264)"
417,4447,GNDC Alley Flats,Guadalupe Neighborhood Development Corporation,Guadalupe Neighborhood Development Corporation,1902 Willow Street,"78,702",3,1,1,,ADU,Rental,Certified/Loan Executed,2017,2116,99,None,0,0,0,1,0,0,0,0,Yes,No,No,No,No,No,No,No,No,No,No,No,No,Yes,No,No,No,No,No,0,0,0,"213,576.66",0,0,0,"213,576.66",N/A,-97.724599,30.256356,"(30.256356, -97.724599)"
30,3277,1905 E 9th Street,Blackshear Neighborhood Development Corporation,Blackshear Neighborhood Development Corporation,1905 E 9th Street,"78,702",1,1,1,,Single Family,Rental,Project Completed,2009,2108,99,None,,0,0,1,0,0,0,0,Yes,No,No,No,No,No,No,No,No,No,No,No,No,Yes,No,No,No,No,No,"16,666.66",0,0,"78,750.00",0,0,0,"95,416.66",N/A,-97.72100129,30.26391813,"(30.26391813, -97.72100129)"
211,3592,UH 2100 San Antonio,US 2100 San Antonio LLC,UH 2100 San Antonio LLC,2100 San Antonio Street,"78,705",9,504,50,,Multifamily,Rental,Project Completed,2017,2057,40,Paid,"185,085.00",0,0,0,50,0,0,454,No,No,No,No,No,No,No,No,No,No,No,No,No,Yes,No,No,Yes,No,No,,,,,,,,0,N/A,-97.74312525,30.28418536,"(30.28418536, -97.74312525)"
213,3594,Texas Alpha House,Texas Alpha House of Phi Kappa Psi Fraternity,Texas Alpha House of Phi Kappa Psi Fraternity,2501 Nueces Street,"78,705",9,17,2,,Multifamily,Rental,Project Completed,2017,2057,40,Paid,"4,362.00",0,0,0,2,0,0,15,No,No,No,No,No,No,No,No,No,No,No,No,No,Yes,No,No,Yes,No,No,,,,,,,,0,N/A,-97.74277481,30.28932076,"(30.28932076, -97.74277481)"
281,3754,2502 Nueces Street,"Lincoln Ventures, LLC","Lincoln Ventures, LLC",2502 Nueces Street,"78,705",9,46,5,,Multifamily,Rental,Project Completed,2017,2057,40,Paid,"57,714.00",0,0,0,5,0,0,41,No,No,No,No,No,No,No,No,No,No,No,No,No,Yes,No,No,Yes,No,No,,,,,,,,0,N/A,-97.743338,30.289642,"(30.289642, -97.743338)"
268,3730,1910 Salina Street,Blackland Community Development Corporation,Blackland Community Development Corporation,1910 Salina Street,"78,702",1,1,1,,ADU,Rental,Building Plan Approved,,,5,None,,0,0,1,0,0,0,0,No,No,No,No,No,No,No,No,No,No,No,No,No,Yes,No,No,No,No,No,,,,,,,,0,N/A,-97.722664,30.280409,"(30.280409, -97.722664)"
117,3502,Gaston Place,Accessible Housing Austin!,Accessible Housing Austin!,1915 Briarcliff Blvd,"78,723",1,27,27,0,Multifamily,Rental,Certified/Loan Executed,2016,2115,99,None,,0,0,27,0,0,0,0,Yes,No,No,No,No,No,No,No,No,No,No,No,No,Yes,No,No,No,No,No,0,0,0,"2,249,260.00",0,0,0,"2,249,260.00",N/A,-97.689883,30.313425,"(30.313425, -97.689883)"
44,3301,City View at the Park,"Parker Lane Senior Apartments, L.P.","Parker Lane Senior Apartments, L.P.",2000 Woodward Street,"78,741",3,70,68,0,Multifamily,Rental,Project Completed,2011,2031,20,None,,7,0,0,61,0,0,0,Yes,No,No,No,No,No,No,No,No,No,No,No,No,No,No,No,No,No,No,0,0,0,"228,000.00","71,000.00",0,0,"299,000.00",9%,-97.74342133,30.21848555,"(30.21848555, -97.74342133)"
65,3381,2004 Chicon Street,Blackland Community Development Corporation,Blackland Community Development Corporation,2004 Chicon Street,"78,722",1,2,2,,Duplex,Rental,Project Completed,2014,2113,99,None,,0,0,2,0,0,0,0,Yes,No,No,No,No,No,No,No,No,No,No,No,No,No,No,No,No,No,No,0,0,0,"17,133.33",0,0,0,"17,133.33",N/A,-97.72181588,30.28115196,"(30.28115196, -97.72181588)"
32,3286,2008 Chicon Street,Blackland Community Development Corporation,Blackland Community Development Corporation,2008 Chicon Street,"78,722",1,2,2,0,Duplex,Rental,Affordability Period Expired,2006,2016,10,None,,0,0,0,2,0,0,0,Yes,No,No,No,No,No,No,No,No,No,No,No,No,No,No,No,No,No,No,0,0,"58,872.00","2,000.00",0,0,0,"60,872.00",N/A,-97.72185672,30.28137007,"(30.28137007, -97.72185672)"
621,5471,AHFC - SF,Austin Housing Finance Corporation,Unknown,2008 E 10th Street,"78,702",1,1,1,0,Single Family,Rental,Project Completed,2013,2112,99,None,0,0,0,0,1,0,0,0,Yes,No,No,No,No,No,No,No,No,No,No,No,No,No,No,No,No,No,No,,,,,,,,0,N/A,-97.71899,30.264686,"(30.264686, -97.71899)"
627,5487,2008 East 10th Street Unit B,Austin Housing Finance Corporation,Austin Housing Finance Corporation,2008 E 10th Street,"78,702",1,1,1,0,Single Family,Rental,Certified/Loan Executed,,,40,None,0,0,0,0,0,0,1,0,No,No,No,No,No,No,No,No,No,No,No,No,No,Yes,No,No,No,No,No,,,,,,,,0,N/A,-97.718991,30.264686,"(30.264686, -97.718991)"
33,3289,2009 Salina Street,Blackland Community Development Corporation,Blackland Community Development Corporation,2009 Salina Street,"78,722",1,6,6,0,Multifamily,Rental,Project Completed,2009,2019,10,None,,0,0,0,6,0,0,0,Yes,No,No,No,No,No,No,No,No,No,No,No,No,No,No,No,No,No,No,0,0,0,"197,142.85",0,0,0,"197,142.85",N/A,-97.72228345,30.28139533,"(30.28139533, -97.72228345)"
264,4688,Nexus at Goodnight Ranch,"Bradsher Family Trust and MVE Ventures, LTD",Momark Development LLC,2010 E Slaughter Lane,"78,748",2,294,0,0,Multifamily,Rental,Certified/Loan Executed,,,0,None,0,0,0,0,0,0,0,294,No,No,No,No,No,No,No,No,No,No,No,Yes,No,Yes,No,No,No,No,No,,,,,,,,0,N/A,-97.768543,30.152818,"(30.152818, -97.768543)"
616,5439,Villas on Sixth,"Villas on Sixth Housing Associates, L.P.",Unknown,2011 E 6th Street,"78,702",3,160,136,0,Multifamily,Rental,Project Completed,2004,2054,50,None,0,0,0,0,136,0,0,24,Yes,No,No,No,No,No,No,No,No,No,No,No,No,No,No,No,No,No,No,,,,,,,,0,9%,-97.720192,30.260722,"(30.260722, -97.720192)"
32,3287,2012 Chicon Street,Blackland Community Development Corporation,Blackland Community Development Corporation,2012 Chicon Street,"78,722",1,2,2,,Duplex,Rental,Affordability Period Expired,2006,2016,10,None,,0,0,0,2,0,0,0,Yes,No,No,No,No,No,No,No,No,No,No,No,No,No,No,No,No,No,No,0,0,"58,872.00","2,000.00",0,0,0,"60,872.00",N/A,-97.72189801,30.28157168,"(30.28157168, -97.72189801)"
634,5498,Escuela Nueva,Guadalupe Neighborhood Development Corporation,Guadalupe Neighborhood Development Corporation,2013 Montopolis Drive,"78,741",3,75,75,0,Multifamily,Rental,Application Received,,,0,None,0,0,0,35,35,0,5,0,Yes,No,No,No,No,Yes,No,No,No,No,No,No,No,Yes,No,No,No,No,No,,,,,,,,0,N/A,-97.70356,30.22445,"(30.22445, -97.70356)"
19,3254,2014 Covered Wagon Pass,Green Doors,Community Partnerships for the Homeless,2014 Covered Wagon Pass,"78,744",2,3,3,0,Single Family,Rental,Project Completed,2007,2027,20,None,,0,0,3,0,0,0,0,Yes,No,No,No,No,No,No,No,No,No,No,No,No,No,No,No,No,No,No,0,0,0,0,"50,000.00",0,0,"50,000.00",N/A,-97.75870203,30.19322232,"(30.19322232, -97.75870203)"
264,3854,Commons at Goodnight (fka Villages at Goodnight),"Bradsher Family Trust and MVE Ventures, LTD",Momark Development LLC,2022 E Slaugther Lane,"78,747",2,304,304,,Multifamily,Rental,Building Permit Issued,,,5,None,,0,0,0,304,0,0,0,No,No,No,No,No,No,No,No,No,No,No,No,No,Yes,No,No,No,No,No,,,,,,,,0,4%,-97.768542,30.152822,"(30.152822, -97.768542)"
230,3611,7EAST,"SL Chicon, LP","SL Chicon, LP",2025 E 7th Street,"78,702",3,177,18,,Multifamily,Rental,Project Completed,2015,2055,40,None,,0,0,0,0,0,18,159,No,No,No,No,No,No,No,No,No,No,No,No,No,No,No,No,No,Yes,No,,,,,,,,0,N/A,-97.71947202,30.26156702,"(30.26156702, -97.71947202)"
210,3591,The Corner,The Corner Development LLC,The Corner Development LLC,2504 San Gabriel Street,"78,705",9,210,42,,Multifamily,Rental,Project Completed,2017,2057,40,None,,0,0,21,21,0,0,168,No,No,No,No,No,No,No,No,No,No,No,No,No,Yes,No,No,Yes,No,No,,,,,,,,0,N/A,-97.74783117,30.28947518,"(30.28947518, -97.74783117)"
27,3271,The Super Co-op,The College Houses,The College Houses,1905 Nueces Street,"78,705",9,50,50,0,Multifamily,Rental,Project Completed,2009,2039,30,None,,0,0,50,0,0,0,0,Yes,No,No,No,No,No,No,No,No,No,No,No,No,No,No,No,No,No,No,0,0,0,0,0,0,"837,500.00","837,500.00",N/A,-97.74383608,30.28301798,"(30.28301798, -97.74383608)"
206,3587,Texan 26th,"Texan Properties, LLC","Texan Properties, LLC",1009 W 26th Street,"78,705",9,206,21,,Multifamily,Rental,Project Completed,2015,2030,15,Paid,"36,076.00",0,0,0,21,0,0,185,No,No,No,No,No,No,No,No,No,No,No,No,No,Yes,No,No,Yes,No,No,,,,,,,,0,N/A,-97.7481753,30.29058927,"(30.29058927, -97.7481753)"
31,3279,2102 Chicon Street,Blackland Community Development Corporation,Blackland Community Development Corporation,2102 Chicon Street,"78,722",1,1,1,0,Single Family,Rental,Project Completed,2003,2023,20,None,,0,0,0,1,0,0,0,Yes,No,No,No,No,No,No,No,No,No,No,No,No,No,No,No,No,No,No,0,0,0,"36,666.67",0,0,0,"36,666.67",N/A,-97.7219492,30.2821393,"(30.2821393, -97.7219492)"
50,3307,Saint Louise House II,VinCare Services of Austin Foundation,VinCare Services of Austin Foundation,2104 Berkett Drive,"78,745",5,22,22,0,Multifamily,Rental,Project Completed,2008,2107,99,None,,0,0,22,0,0,0,0,Yes,No,No,No,No,No,No,No,No,No,No,No,No,No,No,No,No,No,No,"1,765,294.00",0,"40,000.00",0,0,0,0,"1,805,294.00",N/A,-97.8039315,30.21093638,"(30.21093638, -97.8039315)"
35,3292,2106 Chestnut Avenue,Blackland Community Development Corporation,Blackland Community Development Corporation,2106 Chestnut Avenue,"78,722",1,1,1,0,Single Family,Rental,Project Completed,2013,2028,15,None,,0,0,1,0,0,0,0,Yes,No,No,No,No,No,No,No,No,No,No,No,No,No,No,No,No,No,No,0,0,0,"139,035.00","62,500.00",0,0,"201,535.00",N/A,-97.71805463,30.2830115,"(30.2830115, -97.71805463)"
65,3380,2106 Chicon Street,Blackland Community Development Corporation,Blackland Community Development Corporation,2106 Chicon Street,"78,722",1,1,1,0,Single Family,Rental,Project Completed,2014,2113,99,None,,0,0,1,0,0,0,0,Yes,No,No,No,No,No,No,No,No,No,No,No,No,No,No,No,No,No,No,0,0,0,"8,566.66",0,0,0,"8,566.66",N/A,-97.72201073,30.28241284,"(30.28241284, -97.72201073)"
266,3731,2106 Chicon Street,Blackland Community Development Corporation,Blackland Community Development Corporation,2106 Chicon Street,"78,702",1,1,1,,ADU,Rental,Certified/Loan Executed,,,5,None,,0,0,1,0,0,0,0,No,No,No,No,No,No,No,No,No,No,No,No,No,Yes,No,No,No,No,No,,,,,,,,0,N/A,-97.722075,30.282351,"(30.282351, -97.722075)"
606,5411,2107 Alamo,Anmol Mehra,Anmol Mehra,2107 Alamo Street,"78,722",1,5,1,0,Single Family,Rental,Certified/Loan Executed,,,0,None,0,0,0,0,1,0,0,4,No,No,No,No,No,No,No,No,No,No,No,No,No,Yes,No,No,No,No,No,,,,,,,,0,N/A,-97.719758,30.282725,"(30.282725, -97.719758)"
31,3285,2107 Salina Street,Blackland Community Development Corporation,Blackland Community Development Corporation,2107 Salina Street,"78,722",1,1,1,,Single Family,Rental,Project Completed,2003,2023,20,None,,0,0,0,0,0,1,0,Yes,No,No,No,No,No,No,No,No,No,No,No,No,No,No,No,No,No,No,0,0,0,"36,666.67",0,0,0,"36,666.67",N/A,-97.72255917,30.28208674,"(30.28208674, -97.72255917)"
33,3290,2110 Salina Street,Blackland Community Development Corporation,Blackland Community Development Corporation,2110 Salina Street,"78,722",1,1,1,,Single Family,Rental,Project Completed,2009,2019,10,None,,0,0,0,1,0,0,0,Yes,No,No,No,No,No,No,No,No,No,No,No,No,No,No,No,No,No,No,0,0,0,"32,857.14",0,0,0,"32,857.14",N/A,-97.72303482,30.28236494,"(30.28236494, -97.72303482)"
31,3284,2111 Salina Street,Blackland Community Development Corporation,Blackland Community Development Corporation,2111 Salina Street,"78,722",1,1,1,,Single Family,Rental,Project Completed,2003,2023,20,None,,0,0,0,0,0,1,0,Yes,No,No,No,No,No,No,No,No,No,No,No,No,No,No,No,No,No,No,0,0,0,"36,666.67",0,0,0,"36,666.67",N/A,-97.72259173,30.28239544,"(30.28239544, -97.72259173)"
66,3382,2112 E 8th Street,Blackshear Neighborhood Development Corporation,Blackshear Neighborhood Development Corporation,2112 E 8th Street,"78,702",1,1,1,0,Single Family,Rental,Project Completed,2016,2115,99,None,,0,0,1,0,0,0,0,Yes,No,No,No,No,No,No,No,No,No,No,No,No,Yes,No,No,No,No,No,0,0,0,"127,413.00",0,0,0,"127,413.00",N/A,-97.71818467,30.26281963,"(30.26281963, -97.71818467)"
126,3511,William Cannon Apartments,"Pedcor Investments 2012-CXXX, LP","Pedcor Investments 2012-CXXX, LP",2112 William Cannon Drive,"78,744",2,252,252,,Multifamily,Rental,Project Completed,2016,2021,5,None,,0,0,0,252,0,0,0,No,No,No,No,No,No,No,No,No,No,No,No,No,Yes,No,No,No,No,No,,,,,,,,0,N/A,-97.7613179,30.18786679,"(30.18786679, -97.7613179)"
31,3282,2113 Salina Street,Blackland Community Development Corporation,Blackland Community Development Corporation,2113 Salina Street,"78,722",1,1,1,,Single Family,Rental,Project Completed,2003,2023,20,None,,0,0,1,0,0,0,0,Yes,No,No,No,No,No,No,No,No,No,No,No,No,No,No,No,No,No,No,0,0,0,"36,666.67",0,0,0,"36,666.67",N/A,-97.72262411,30.28253519,"(30.28253519, -97.72262411)"
384,4012,Pathways at Goodrich Place,Housing Authority of the City of Austin,Housing Authority of the City of Austin,2126 Goodrich Avenue,"78,704",5,120,110,,Multifamily,Rental,Building Permit Issued,,,5,None,0,0,0,0,110,0,0,10,No,No,No,No,No,No,No,No,No,No,No,No,No,Yes,No,No,No,No,No,,,,,,,,0,9%,-97.773865,30.248315,"(30.248315, -97.773865)"
337,5417,Rebekah Baines Johnson Center,"Southwest Strategies Group, Momark Development and Austin Geriatric Center","DMA Development Company, LLC",21 Waller Street,"78,723",3,279,246,5,Multifamily,Rental,Certified/Loan Executed,,,40,None,0,18,0,72,156,0,0,33,Yes,No,No,No,No,No,No,No,No,No,No,No,No,Yes,No,No,No,No,No,0,"5,799,445.00",0,0,0,0,0,"6,479,000.00",N/A,-97.733152,30.253439,"(30.253439, -97.733152)"
337,3882,Rebekah Baines Johnson Center,"Southwest Strategies Group, Momark Development and Austin Geriatric Center","DMA Development Company, LLC",21 Waller Street,"78,723",3,724,256,,Multifamily,Rental,Certified/Loan Executed,,,5,None,,27,0,153,52,0,24,468,No,No,No,No,No,No,No,No,No,No,No,No,No,Yes,No,No,No,No,No,,,,,,,,0,N/A,-97.733152,30.253439,"(30.253439, -97.733152)"
253,3679,Pointe on Rio,19 Rio Partners LP,19 Rio Partners LP,1901 Rio Grande Street,"78,705",9,122,12,,Multifamily,Rental,Project Completed,2015,2030,15,Paid,"66,388.00",0,0,0,0,0,12,110,No,No,No,No,No,No,No,No,No,No,No,No,No,Yes,No,No,Yes,No,No,,,,,,,,0,N/A,-97.74492906,30.28285304,"(30.28285304, -97.74492906)"
32,3288,2201 Salina Street,Blackland Community Development Corporation,Blackland Community Development Corporation,2201 Salina Street,"78,722",1,1,1,,Single Family,Rental,Affordability Period Expired,2006,2016,10,None,,0,0,0,1,0,0,0,Yes,No,No,No,No,No,No,No,No,No,No,No,No,No,No,No,No,No,No,0,0,"29,436.00","1,000.00",0,0,0,"30,436.00",N/A,-97.7226581,30.28281933,"(30.28281933, -97.7226581)"
118,3503,2201 SL Davis Avenue,"Jim Rath, Owner","Jim Rath, Owner",2201 S L Davis Avenue,"78,702",1,2,1,,Single Family,Rental,Affordability Period Expired,2013,2018,5,None,,0,0,0,0,0,1,1,No,No,No,No,No,No,No,No,No,No,No,No,No,Yes,No,No,No,No,No,,,,,,,,0,N/A,-97.716106,30.27089,"(30.27089, -97.716106)"
289,3769,2203 Salina Street Rehab,Blackland Community Development Corporation,Blackland Community Development Corporation,2203 Salina Street,"78,722",1,1,1,0,Single Family,Rental,Project Completed,2017,2116,99,None,,0,0,1,0,0,0,0,Yes,No,No,No,No,No,No,No,No,No,No,No,No,Yes,No,No,No,No,No,0,0,0,"150,095.00",0,0,0,"150,095.00",N/A,-97.722755,30.282993,"(30.282993, -97.722755)"
334,3879,Blackland CDC - AlleyFlats,Blackland Community Development Corporation,Blackland Community Development Corporation,2203 Salina Street,"78,722",1,1,1,,ADU,Rental,Building Plan Approved,,,5,None,,0,0,1,0,0,0,0,No,No,No,No,No,No,No,No,No,No,No,No,No,Yes,No,No,No,No,No,,,,,,,,0,N/A,-97.722697,30.28301,"(30.28301, -97.722697)"
205,3586,Villas on 26th,Villas on 26th Street LP,Villas on 26th Street LP,800 W 26th Street,"78,705",9,182,18,,Multifamily,Rental,Project Completed,2015,2030,15,Paid,"39,422.00",0,0,0,18,0,0,164,No,No,No,No,No,No,No,No,No,No,No,No,No,Yes,No,No,Yes,No,No,,,,,,,,0,N/A,-97.74556505,30.2909574,"(30.2909574, -97.74556505)"
199,3580,The Quarters at Bandera House,"West Campus Partners III, LP","West Campus Partners III, LP",2215 Rio Grande Street,"78,705",9,155,16,,Multifamily,Rental,Project Completed,2014,2029,15,Paid,"60,209.00",0,0,0,0,0,16,139,No,No,No,No,No,No,No,No,No,No,No,No,No,Yes,No,No,Yes,No,No,,,,,,,,0,N/A,-97.74461305,30.28645112,"(30.28645112, -97.74461305)"
204,3585,Regents at 24th,"Regents West 2th, LP","Regents West 24th, LP",2401 San Gabriel Street,"78,705",9,93,9,,Multifamily,Rental,Project Completed,2014,2029,15,Paid,"49,732.00",0,0,0,0,0,9,84,No,No,No,No,No,No,No,No,No,No,No,No,No,Yes,No,No,Yes,No,No,,,,,,,,0,N/A,-97.74745612,30.28842124,"(30.28842124, -97.74745612)"
207,3588,Crest at Pearl,"LMI Pearl Apartment Homes, LLC","LMI Pearl Apartment Homes, LLC",706 Martin Luther King Jr Bouelvard,"78,705",9,141,28,,Multifamily,Rental,Project Completed,2014,2029,15,None,,0,0,14,0,0,14,113,No,No,No,No,No,No,No,No,No,No,No,No,No,Yes,No,No,Yes,No,No,,,,,,,,0,N/A,-97.74618319,30.28329642,"(30.28329642, -97.74618319)"
200,3581,21 Pearl,21Pearl LLC,21Pearl LLC,911 W 21st Street,"78,705",9,136,28,,Multifamily,Rental,Project Completed,2014,2029,15,None,,0,0,14,0,0,14,108,No,No,No,No,No,No,No,No,No,No,No,No,No,Yes,No,No,Yes,No,No,,,,,,,,0,N/A,-97.74746147,30.28468462,"(30.28468462, -97.74746147)"
98,3484,Riverchase Apartments,"Riverchase Associates, Ltd.",Unknown,2239 Cromwell Circle,"78,741",3,284,56,,Multifamily,Rental,Affordability Period Expired,,2037,,None,,0,0,0,0,0,56,228,No,No,No,No,No,No,No,No,No,No,No,No,No,No,No,No,No,No,No,,,,,,,,0,N/A,-97.7183836,30.22840445,"(30.22840445, -97.7183836)"
165,3546,Enfield Gardens,Enfield Gardens LLC,Enfield Gardens LLC,2300 Enfield Road,"78,726",10,36,4,,Multifamily,Rental,Project Cancelled,,,5,None,,0,0,0,0,0,4,32,No,No,No,No,No,No,No,No,No,No,No,No,No,Yes,No,No,No,No,No,,,,,,,,0,N/A,-97.76713505,30.28806871,"(30.28806871, -97.76713505)"
201,3582,Woolridge Hall,"Alan & O'Hara Development Company, LLC","Alan & O'Hara Development Company, LLC",2400 Nueces Street,"78,705",9,304,31,,Multifamily,Rental,Project Completed,2013,2028,15,Paid,"127,525.00",0,0,0,0,0,31,273,No,No,No,No,No,No,No,No,No,No,No,No,No,Yes,No,No,Yes,No,No,,,,,,,,0,N/A,-97.74343837,30.2882158,"(30.2882158, -97.74343837)"
232,3813,Radius on Grove,"Continental Homes of Texas, LP","Continental Homes of Texas, LP",2301 Grove Boulevard,"78,741",3,160,64,,Multifamily,Rental,Project Completed,2018,2023,5,None,,0,0,0,0,0,64,96,No,No,No,No,No,No,No,No,No,No,No,No,No,Yes,No,No,No,No,No,,,,,,,,0,N/A,-97.708361,30.223744,"(30.223744, -97.708361)"
71,3388,Bluebonnet Studios SRO,"Foundation Communities, Inc.","Foundation Communities, Inc.",2301 S Lamar Boulevard,"78,704",5,107,107,6,Multifamily,Rental,Project Completed,2014,2054,40,None,,22,21,64,0,0,0,0,Yes,No,No,No,No,No,No,No,No,No,No,No,No,Yes,No,No,No,No,No,0,"3,700,000.00",0,"294,420.00",0,0,0,"3,994,420.00",9%,-97.77551651,30.24698735,"(30.24698735, -97.77551651)"
12,3241,2320 Santa Rita Street,Guadalupe Neighborhood Development Corporation,Guadalupe Neighborhood Development Corporation,2320 Santa Rita Street,"78,702",3,1,1,,Single Family,Rental,Project Completed,2005,2025,20,None,,0,0,0,1,0,0,0,Yes,No,No,No,No,No,No,No,No,No,No,No,No,No,No,No,No,No,No,0,0,0,"60,000.00",0,0,0,"60,000.00",N/A,-97.71726547,30.25706987,"(30.25706987, -97.71726547)"
78,3397,Lucero Apartments (formerly Oak Creek Village),"2013 Travis Oak Creek, LP","Eureka Holdings, LLC",2324 Wilson Street,"78,704",9,173,173,0,Multifamily,Rental,Project Completed,2009,2049,40,None,,18,0,70,85,0,0,0,Yes,No,No,No,No,No,No,No,No,No,No,No,No,Yes,No,No,No,No,No,0,0,"2,000,000.00",0,0,0,0,"2,000,000.00",9%,-97.7562608,30.24222247,"(30.24222247, -97.7562608)"
370,3957,Muze Student Living,"ParallelCO, L.L.C. w LSD-Austin, L.L.C","ParallelCO, L.L.C. w LSD-Austin, L.L.C",2350 Guadalupe Street,"78,723",9,502,50,,Multifamily,Rental,Certified/Loan Executed,,,40,Pending,,0,0,0,50,0,0,452,No,No,No,No,No,No,No,No,No,No,No,No,No,Yes,No,No,Yes,No,No,,,,,,,,0,N/A,-97.744347,30.284159,"(30.284159, -97.744347)"
238,3619,Alexan East 6th Street,"AE6 Apartments, LLC",AE6 Apartments LLC,2400 E 6th Street,"78,702",3,208,21,,Multifamily,Rental,Project Completed,2018,2058,40,None,,0,0,0,0,0,21,187,No,No,No,No,No,No,No,No,No,No,No,No,No,No,No,No,No,Yes,No,,,,,,,,0,N/A,-97.71570636,30.25969828,"(30.25969828, -97.71570636)"
202,3583,Callaway House Austin,ACC OP (West Campus) LLC,ACC OP (West Campus) LLC,505 W 22nd Street,"78,705",9,219,22,,Multifamily,Rental,Project Completed,2013,2028,15,Paid,"87,795.00",0,0,0,0,0,22,197,No,No,No,No,No,No,No,No,No,No,No,No,No,Yes,No,No,Yes,No,No,,,,,,,,0,N/A,-97.74342091,30.28494112,"(30.28494112, -97.74342091)"
347,3903,AMLI on Aldrich,"Catellus Austin, LLC",Catellus Austin LLC,2401 Aldrich Street,"78,723",9,318,48,,Multifamily,Rental,Project Completed,2018,2068,50,None,,0,0,0,48,0,0,270,No,No,No,No,No,No,Yes,No,No,No,No,No,No,Yes,No,No,No,No,No,,,,,,,,0,N/A,-97.702038,30.302392,"(30.302392, -97.702038)"
425,4539,Vi Collina,"Vi Collina, LLC","Saigebrook Development, LLC",2401 E Oltorf Street,"78,741",3,84,84,0,Multifamily,Rental,Application Received,,,0,None,0,8,0,30,35,0,0,11,Yes,No,No,No,No,No,No,No,No,No,No,No,No,Yes,No,No,No,No,No,,,,,,,,0,N/A,-97.7296,30.22853,"(30.22853, -97.7296)"
193,3574,Grand Marc at 26th,"PPC Land Ventures, Inc.","PPC Land Ventures, Inc.",510 W 26th Street,"78,705",9,138,14,,Multifamily,Rental,Project Completed,2013,2028,15,Paid,"54,638.00",0,0,0,0,0,14,124,No,No,No,No,No,No,No,No,No,No,No,No,No,Yes,No,No,Yes,No,No,,,,,,,,0,N/A,-97.74257135,30.29099868,"(30.29099868, -97.74257135)"
203,3584,Regents at 26th,"West Campus 26th, L.P.","West Campus 26th, L.P.",900 W 26th Street,"78,705",9,139,14,,Multifamily,Rental,Project Completed,2013,2028,15,Paid,"66,084.00",0,0,0,0,0,14,125,No,No,No,No,No,No,No,No,No,No,No,No,No,Yes,No,No,Yes,No,No,,,,,,,,0,N/A,-97.74649449,30.29099695,"(30.29099695, -97.74649449)"
18,3252,2407 S 4th Street,Green Doors,Community Partnerships for the Homeless,2407 S 4th Street,"78,704",2,3,3,,Single Family,Rental,Project Completed,2006,2026,20,None,,3,0,0,0,0,0,0,Yes,No,No,No,No,No,No,No,No,No,No,No,No,No,No,No,No,No,No,0,0,0,"35,000.00",0,0,0,"35,000.00",N/A,-97.76324138,30.24261575,"(30.24261575, -97.76324138)"
196,3577,2401 Longview,"24th & Longview, LLC","24th & Longview, LLC",2401 Longview Street,"78,705",9,70,7,,Multifamily,Rental,Project Completed,2012,2027,15,Paid,"31,401.00",0,0,0,0,0,7,63,No,No,No,No,No,No,No,No,No,No,No,No,No,Yes,No,No,Yes,No,No,,,,,,,,0,N/A,-97.75048641,30.28868985,"(30.28868985, -97.75048641)"
30,3274,2412 Bryan Street,Blackshear Neighborhood Development Corporation,Blackshear Neighborhood Development Corporation,2412 Bryan Street,"78,702",1,1,1,0,Single Family,Rental,Project Completed,2009,2108,99,None,,0,0,0,1,0,0,0,Yes,No,No,No,No,No,No,No,No,No,No,No,No,Yes,No,No,No,No,No,"16,666.66",0,0,"78,750.00",0,0,0,"95,416.66",N/A,-97.71634938,30.26709461,"(30.26709461, -97.71634938)"
197,3578,Axis West Campus,CWC Borrower LLC,CWC Borrower LLC,2505 Longview Street,"78,705",9,167,34,,Multifamily,Rental,Project Completed,2012,2027,15,None,,0,0,17,0,0,17,133,No,No,No,No,No,No,No,No,No,No,No,No,No,Yes,No,No,Yes,No,No,,,,,,,,0,N/A,-97.75023504,30.29006698,"(30.29006698, -97.75023504)"
195,3576,Ellora Apartments,ECO Properties LLC,ECO Properties LLC,908 W 21st Street,"78,705",9,23,2,,Multifamily,Rental,Project Completed,2012,2027,15,Paid,"4,454.00",0,0,0,2,0,0,21,No,No,No,No,No,No,No,No,No,No,No,No,No,Yes,No,No,Yes,No,No,,,,,,,,0,N/A,-97.74746589,30.28498076,"(30.28498076, -97.74746589)"
194,3575,2608 Salado Multifamily,"Kline Ventures, LP","Kline Ventures, LP",2608 Salado Street,"78,705",9,7,1,,Multifamily,Rental,Project Completed,2011,2026,15,Paid,"6,447.00",0,0,0,0,0,1,6,No,No,No,No,No,No,No,No,No,No,No,No,No,Yes,No,No,Yes,No,No,,,,,,,,0,N/A,-97.74552828,30.29161949,"(30.29161949, -97.74552828)"
7,3230,Arbor Terrace,FC Austin One Housing Corporation,"Foundation Communities, Inc.",2501 S IH-35,"78,741",3,120,120,25,Multifamily,Rental,Project Completed,2011,2110,99,None,,0,0,120,0,0,0,0,Yes,No,No,No,No,No,No,No,No,No,No,No,No,Yes,No,No,No,No,No,"898,934.00",0,"1,101,066.00",0,0,0,0,"2,000,000.00",N/A,-97.7413955,30.23146027,"(30.23146027, -97.7413955)"
133,3518,Thornton Flats,PSW Real Estate,PSW Real Estate,2501 Thornton Road,"78,704",5,105,11,,Multifamily,Rental,Project Completed,2018,2058,40,None,,0,0,0,11,0,0,94,No,No,No,No,No,No,No,No,No,No,No,No,No,Yes,Yes,No,No,No,No,,,,,,,,0,N/A,-97.77277233,30.24309617,"(30.24309617, -97.77277233)"
191,3572,21 Rio,"2101 Rio Grande Property Owner, LLC","2101 Rio Grande Property Owner, LLC",2101 Rio Grande Street,"78,705",9,299,30,,Multifamily,Rental,Project Completed,2009,2024,15,Paid,"78,333.00",0,0,0,30,0,0,269,No,No,No,No,No,No,No,No,No,No,No,No,No,Yes,No,No,Yes,No,No,,,,,,,,0,N/A,-97.74474277,30.2842162,"(30.2842162, -97.74474277)"
185,3566,Block on Leon,CWS Capital Partners LLC,CWS Capital Partners LLC,2510  Leon Street,"78,705",9,138,28,,Multifamily,Rental,Project Completed,2009,2024,15,None,,0,0,14,0,0,14,110,No,No,No,No,No,No,No,No,No,No,No,No,No,Yes,No,No,Yes,No,No,,,,,,,,0,N/A,-97.7494449,30.29051861,"(30.29051861, -97.7494449)"
30,3276,2503 E 9th Steet,Blackshear Neighborhood Development Corporation,Blackshear Neighborhood Development Corporation,2503 E 9th Steet,"78,702",1,1,1,,Single Family,Rental,Project Completed,2009,2108,99,None,,1,0,0,0,0,0,0,Yes,No,No,No,No,No,No,No,No,No,No,No,No,Yes,No,No,No,No,No,"16,666.66",0,0,"78,750.00",0,0,0,"95,416.66",N/A,-97.71430575,30.26480387,"(30.26480387, -97.71430575)"
192,3573,904-908 W. 22 1/2 Street,"22 1/2 Street Partners, LP",22 1/2 Street Partners,904 W 22nd Street,"78,705",9,62,6,,Multifamily,Rental,Project Completed,2009,2024,15,Paid,"26,860.00",0,0,0,0,0,6,56,No,No,No,No,No,No,No,No,No,No,No,No,No,Yes,No,No,Yes,No,No,,,,,,,,0,N/A,-97.74701685,30.28561668,"(30.28561668, -97.74701685)"
189,3570,Block on 23rd,CWS Apartment Homes LLC,CWS Apartment Homes,2222 Pearl Street,"78,705",9,99,10,,Multifamily,Rental,Project Completed,2008,2023,15,Paid,"45,940.00",0,0,0,0,0,10,89,No,No,No,No,No,No,No,No,No,No,No,No,No,Yes,No,No,Yes,No,No,,,,,,,,0,N/A,-97.74671373,30.28706135,"(30.28706135, -97.74671373)"
183,3564,Karnes House (fka University Garden Apartments),Simmons Vedder & Company,Simmons Vedder & Company,2222 Rio Grande Street,"78,705",9,12,1,,Multifamily,Rental,Project Completed,2008,2023,15,Paid,"5,746.00",0,0,0,0,0,1,11,No,No,No,No,No,No,No,No,No,No,No,No,No,Yes,No,No,Yes,No,No,,,,,,,,0,N/A,-97.74501122,30.28685336,"(30.28685336, -97.74501122)"
18,3251,2505 Village Trail Circle,Green Doors,Community Partnerships for the Homeless,2505 Village Trail Circle,"78,744",2,7,7,0,Single Family,Rental,Project Completed,2006,2026,20,None,,7,0,0,0,0,0,0,Yes,No,No,No,No,No,No,No,No,No,No,No,No,No,No,No,No,No,No,0,0,0,"67,505.00",0,0,0,"67,505.00",N/A,-97.74598478,30.19478667,"(30.19478667, -97.74598478)"
182,3563,Quarters at Nueces House,Simmons Vedder & Company,Simmons Vedder & Company,2300 Nueces Street,"78,705",9,232,23,,Multifamily,Rental,Project Completed,2008,2023,15,Paid,"111,106.00",0,0,0,0,0,23,209,No,No,No,No,No,No,No,No,No,No,No,No,No,Yes,No,No,Yes,No,No,,,,,,,,0,N/A,-97.74390448,30.28679177,"(30.28679177, -97.74390448)"
293,3773,Gaston Tract,Bill Gaston Inc.,Bill Gaston Inc.,2511 W Braker Lane,"78,758",4,423,14,,Multifamily,Rental,Project Cancelled,,,40,None,,0,0,0,14,0,0,409,No,No,No,No,No,No,No,No,No,Yes,No,No,No,Yes,No,No,No,No,No,,,,,,,,0,N/A,-97.718506,30.389516,"(30.389516, -97.718506)"
186,3567,Block on 25th West,CWS Capital Partners LLC,CWS Capital Partners LLC,2501 Pearl Street,"78,705",9,80,8,,Multifamily,Rental,Project Completed,2008,2023,15,Paid,"38,896.00",0,0,0,0,0,8,72,No,No,No,No,No,No,No,No,No,No,No,No,No,Yes,No,No,Yes,No,No,,,,,,,,0,N/A,-97.7462254,30.28958455,"(30.28958455, -97.7462254)"
179,3560,Texan Shoal Creek,"Texan Shoal Creek, LLC","Texan Shoal Creek, LLC",2502 Leon Street,"78,705",9,79,8,,Multifamily,Rental,Project Completed,2008,2023,15,Paid,"36,407.00",0,0,0,0,0,8,71,No,No,No,No,No,No,No,No,No,No,No,No,No,Yes,No,No,Yes,No,No,,,,,,,,0,N/A,-97.74945961,30.28985058,"(30.28985058, -97.74945961)"
175,3556,Texan Tower,2505 San Gabriel Ltd.,2505 San Gabriel Ltd.,2505 San Gabriel Street,"78,705",9,74,7,,Multifamily,Rental,Project Completed,2008,2023,15,Paid,"37,964.00",0,0,0,0,0,7,67,No,No,No,No,No,No,No,No,No,No,No,No,No,Yes,No,No,Yes,No,No,,,,,,,,0,N/A,-97.74739903,30.2901088,"(30.2901088, -97.74739903)"
180,3561,Texan at Pearl,"Texan Properties, LLC","Texan Properties, LLC",2515 Pearl Street,"78,705",9,81,8,,Multifamily,Rental,Project Completed,2008,2023,15,Paid,"34,418.00",0,0,0,0,0,8,73,No,No,No,No,No,No,No,No,No,No,No,No,No,Yes,No,No,Yes,No,No,,,,,,,,0,N/A,-97.74625073,30.29064945,"(30.29064945, -97.74625073)"
630,5494,Moxy Hotel,,White Lodging Services Corp,2552 Guadalupe Street,"78,705",9,0,0,0,Non-Residential,Non-Residential,Building Plan Under Review,,,0,Due,"32,981.00",0,0,0,0,0,0,0,No,No,No,No,No,No,No,No,No,No,No,No,No,No,No,No,No,No,No,,,,,,,,0,N/A,-97.74165,30.290178,"(30.290178, -97.74165)"
609,5423,Hilton Garden Inn Hotel,"Lions Veldt, Inc","Lions Veldt, Inc",2600 Brockton Drive,"78,758",1,0,0,0,Non-Residential,Rental,Application Received,,,0,Pending,"196,168.00",0,0,0,0,0,0,0,No,No,No,No,No,No,No,No,No,Yes,No,No,No,No,No,No,No,No,No,,,,,,,,0,N/A,-97.71924,30.393088,"(30.393088, -97.71924)"
347,3901,Aldrich 51,"Catellus Austin, LLC",Catellus Austin LLC,2604 Aldrich Street,"78,723",9,240,216,10,Multifamily,Rental,Project Completed,2015,2030,15,None,,18,0,47,31,0,120,24,Yes,No,Yes,No,No,No,Yes,No,No,No,No,No,No,Yes,No,No,No,No,No,0,"2,000,000.00","2,000,000.00",0,0,0,0,"4,000,000.00",4%,-97.701803,30.304204,"(30.304204, -97.701803)"
115,3713,Rosewood Anointed Acres,Rosewood Anointed Acres LP,Rosewood Anointed Acres LP,2604 Rosewood Avenue,"78,702",1,80,72,,Multifamily,Rental,Project Cancelled,,,5,None,,8,0,0,0,0,64,8,No,No,No,No,No,No,No,No,No,No,No,No,No,Yes,No,No,No,No,No,,,,,,,,0,N/A,-97.706062,30.272967,"(30.272967, -97.706062)"
174,3555,Quarters at Montgomery,"West Campus Partners III, LP",Simmons Vedder & Company,2700 Nueces Street,"78,705",9,88,9,,Multifamily,Rental,Project Completed,2008,2023,15,Paid,"40,925.00",0,0,0,0,0,9,79,No,No,No,No,No,No,No,No,No,No,No,No,No,Yes,No,No,Yes,No,No,,,,,,,,0,N/A,-97.74320662,30.2920704,"(30.2920704, -97.74320662)"
188,3569,Block on Rio Grande,Block Rio Grande L.P.,Block Rio Grande L.P.,2819 Rio Grande Street,"78,705",9,97,20,,Multifamily,Rental,Project Completed,2008,2023,15,None,,0,0,10,0,0,10,67,No,No,No,No,No,No,No,No,No,No,No,No,No,Yes,No,No,Yes,No,No,,,,,,,,0,N/A,-97.74366717,30.29507208,"(30.29507208, -97.74366717)"
184,3565,Jefferson at West Campus,JPI Development Services,JPI Development Services,600 W 26th Street,"78,705",9,364,36,,Multifamily,Rental,Project Completed,2008,2023,15,Paid,"57,766.00",0,0,0,0,0,36,328,No,No,No,No,No,No,No,No,No,No,No,No,No,Yes,No,No,Yes,No,No,,,,,,,,0,N/A,-97.74346368,30.29111022,"(30.29111022, -97.74346368)"
601,5385,Modera Domain,"2701 Research Forest Drive, LLC","2701 Research Forest Drive, LLC",2618 Kramer Lane,"78,758",7,354,14,0,Multifamily,Rental,Building Permit Issued,,,0,None,0,0,0,0,14,0,0,340,No,No,No,No,No,No,No,No,No,Yes,No,No,No,No,No,No,No,No,No,,,,,,,,0,N/A,-97.718565,30.395266,"(30.395266, -97.718565)"
178,3559,Block on 28th,CWS Capital Partners LLC,CWS Capital Partners LLC,701 W 28th Street,"78,705",9,100,10,,Multifamily,Rental,Project Completed,2008,2023,15,Paid,"48,450.00",0,0,0,0,0,10,90,No,No,No,No,No,No,No,No,No,No,No,No,No,Yes,No,No,Yes,No,No,,,,,,,,0,N/A,-97.74463321,30.29327736,"(30.29327736, -97.74463321)"
611,5433,The Heights on South Congress (fka South Congress Village),"South Congress Apartments, L.P.",Unknown,2703 S Congress Avenue,"78,704",3,172,172,0,Multifamily,Rental,Project Completed,2000,2020,20,None,0,0,0,0,172,0,0,0,No,No,No,No,No,No,No,No,No,No,No,No,No,No,No,No,No,No,No,,,,,,,,0,4%,-97.756111,30.235242,"(30.235242, -97.756111)"
187,3568,Block on 25th East,CWS Capital Partners LLC,CWS Capital Partners LLC,702 W 25th Street,"78,705",9,87,9,,Multifamily,Rental,Project Completed,2008,2023,15,Paid,"58,345.00",0,0,0,0,0,9,78,No,No,No,No,No,No,No,No,No,No,No,No,No,Yes,No,No,Yes,No,No,,,,,,,,0,N/A,-97.74515909,30.28957953,"(30.28957953, -97.74515909)"
181,3562,Quarters at Grayson,Simmons Vedder & Company,Simmons Vedder & Company,714 W 22nd Street,"78,705",9,100,10,,Multifamily,Rental,Project Completed,2008,2023,15,Paid,"47,890.00",0,0,0,0,0,10,90,No,No,No,No,No,No,No,No,No,No,No,No,No,Yes,No,No,Yes,No,No,,,,,,,,0,N/A,-97.74630853,30.28550747,"(30.28550747, -97.74630853)"
651,5561,2711 W Anderson Lane,Michigan RV Resort LLC and PP Anderson Lane LLC,Ardent Residential,2711 W Anderson Lane,"78,757",7,322,32,0,Multifamily,Rental,Site Plan Under Review,,,0,None,0,0,0,0,0,0,32,290,No,No,No,No,No,No,No,No,No,No,No,No,No,No,No,No,No,Yes,No,,,,,,,,0,N/A,-97.736452,30.358341,"(30.358341, -97.736452)"
235,3616,Bell South Lamar,Lamar Manchaca Residential LP,Lamar Manchaca Residential LP,2717 S Lamar Boulevard,"78,704",5,327,33,,Multifamily,Rental,Project Completed,2015,2055,40,None,,0,0,0,0,0,33,294,No,No,No,No,No,No,No,No,No,No,No,No,No,No,No,No,No,Yes,No,,,,,,,,0,N/A,-97.7810716,30.24411799,"(30.24411799, -97.7810716)"
45,3302,Lyons Gardens,"Rosewood I Senior Housing Community, Inc.","DMA Development Company, LLC",2720 Lyons Road,"78,702",3,54,53,0,Multifamily,Rental,Project Completed,2003,2023,20,None,,0,0,53,0,0,0,1,Yes,No,No,No,No,No,No,No,No,No,No,No,No,No,No,No,No,No,No,0,0,0,"666,715.00","133,285.00",0,0,"800,000.00",N/A,-97.70918934,30.26457934,"(30.26457934, -97.70918934)"
347,4410,The Jordan at Mueller,"Catellus Austin, LLC",Catellus Austin LLC,2725 Philomena Street,"78,723",9,132,132,14,Multifamily,Rental,Certified/Loan Executed,2017,2057,40,None,0,14,0,66,52,0,0,0,Yes,No,No,No,No,No,Yes,No,No,No,No,No,No,Yes,No,No,No,No,No,0,"4,000,000.00",0,0,0,0,0,"4,000,000.00",9%,-97.697889,30.300054,"(30.300054, -97.697889)"
614,5436,Rosemont at Oak Valley (fka Pleasant Valley Villas),"Pleasant Valley Villas Housing, L.P.",Unknown,2800 Collins Creek Drive,"78,741",3,280,280,0,Multifamily,Rental,Project Completed,2002,2022,20,None,0,0,0,0,280,0,0,0,No,No,No,No,No,No,No,No,No,No,No,No,No,No,No,No,No,No,No,,,,,,,,0,4%,-97.731191,30.224565,"(30.224565, -97.731191)"
77,3396,The Works at Pleasant Valley,Lifeworks Affordable Housing Corporation,Lifeworks Affordable Housing Corporation,2800 Lyons Road,"78,702",3,45,45,20,Multifamily,Rental,Project Completed,2014,2113,99,None,,15,0,30,0,0,0,0,Yes,No,No,No,No,No,No,No,No,No,No,No,No,Yes,No,No,No,No,No,"650,000.00",0,0,0,"200,000.00",0,0,"850,000.00",N/A,-97.70740009,30.26397344,"(30.26397344, -97.70740009)"
417,4442,GNDC Alley Flats,Guadalupe Neighborhood Development Corporation,Guadalupe Neighborhood Development Corporation,2800 Prado Street,"78,702",3,1,1,,Single Family,Rental,Certified/Loan Executed,2017,2116,99,None,0,0,0,1,0,0,0,0,Yes,No,No,No,No,No,No,No,No,No,No,No,No,Yes,No,No,No,No,No,0,0,0,"213,576.66",0,0,0,"213,576.66",N/A,-97.70835214,30.26228639,"(30.26228639, -97.70835214)"
417,4443,GNDC Alley Flats,Guadalupe Neighborhood Development Corporation,Guadalupe Neighborhood Development Corporation,2800 Prado Street,"78,702",3,1,1,,ADU,Rental,Certified/Loan Executed,2017,2116,99,None,0,0,0,1,0,0,0,0,Yes,No,No,No,No,No,No,No,No,No,No,No,No,Yes,No,No,No,No,No,0,0,0,"213,576.66",0,0,0,"213,576.66",N/A,-97.70835214,30.26228639,"(30.26228639, -97.70835214)"
417,4445,GNDC Alley Flats,Guadalupe Neighborhood Development Corporation,Guadalupe Neighborhood Development Corporation,2808 Gonzales Street,"78,702",3,1,1,,Single Family,Rental,Project Completed,2017,2116,99,None,0,0,0,1,0,0,0,0,Yes,No,No,No,No,No,No,No,No,No,No,No,No,Yes,No,No,No,No,No,0,0,0,"213,576.66",0,0,0,"213,576.66",N/A,-97.708853,30.260303,"(30.260303, -97.708853)"
417,4446,GNDC Alley Flats,Guadalupe Neighborhood Development Corporation,Guadalupe Neighborhood Development Corporation,2808 Gonzales Street,"78,702",3,1,1,,ADU,Rental,Project Completed,2017,2116,99,None,0,0,0,1,0,0,0,0,Yes,No,No,No,No,No,No,No,No,No,No,No,No,Yes,No,No,No,No,No,0,0,0,"213,576.66",0,0,0,"213,576.66",N/A,-97.708853,30.260303,"(30.260303, -97.708853)"
177,3558,Block on Pearl South,"Pearl Block, L.P. & Delaware Ltd. Partnership","Pearl Block, L.P. & Delware Ltd. Partnership",900 W 22nd Street,"78,705",9,49,5,,Multifamily,Rental,Project Completed,2008,2023,15,Paid,"22,948.00",0,0,0,0,0,5,44,No,No,No,No,No,No,No,No,No,No,No,No,No,Yes,No,No,Yes,No,No,,,,,,,,0,N/A,-97.74670947,30.28562987,"(30.28562987, -97.74670947)"
2,3225,M Station,"Foundation Communities, Inc.","Foundation Communities, Inc.",2906 E Martin Luther King Jr Boulevard,"78,722",1,150,140,0,Multifamily,Rental,Project Completed,2009,2108,99,None,0,28,0,68,36,0,8,10,Yes,No,No,No,No,No,No,No,No,No,No,No,No,Yes,No,No,No,No,No,"2,000,000.00",0,0,0,0,0,0,"2,000,000.00",9%,-97.70841372,30.28200722,"(30.28200722, -97.70841372)"
25,3269,Pecan Springs Commons,Green Doors,Green Doors,2907 Sweeney Lane,"78,723",1,4,4,,FourPlex,Rental,Project Completed,2012,2111,99,None,,0,0,4,0,0,0,0,Yes,No,No,No,No,No,No,No,No,No,No,No,No,Yes,No,No,No,No,No,"223,140.00",0,0,0,0,0,0,"223,140.00",N/A,-97.67886233,30.30573796,"(30.30573796, -97.67886233)"
602,5390,MLK Station Apartments - West Phase II (Platform Phase II),GUGV Platform II Property Owning LLC,GUGV Platform II Property Owning LLC,2910 E 17th Street,"78,702",1,202,41,0,Multifamily,Rental,Building Permit Issued,,,0,None,0,0,0,0,41,0,0,161,No,No,No,No,No,No,No,No,No,No,No,No,No,No,No,Yes,No,No,No,,,,,,,,0,N/A,-97.710691,30.279807,"(30.279807, -97.710691)"
274,3741,Colorado Creek Apartments,GCRE/TX Austin Master LLC,GCRE/TX Austin Master LLC,2917 Fallwell Lane,"78,617",2,240,216,,Multifamily,Rental,Building Permit Issued,2016,2031,15,None,,0,0,0,96,0,120,24,No,No,No,No,No,No,No,No,No,No,No,No,No,Yes,No,No,No,No,No,,,,,,,,0,4%,-97.633937,30.205648,"(30.205648, -97.633937)"
147,3529,Rio Lado Apartments,Fort Creek Housing LP,Fort Creek Housing LP,2989 E 51st Street,"78,723",1,128,121,,Multifamily,Rental,Certified/Loan Executed,,,5,None,,0,0,45,76,0,0,7,No,No,No,No,No,No,No,No,No,No,No,No,No,Yes,No,No,No,No,No,,,,,,,,0,N/A,-97.68431885,30.29639437,"(30.29639437, -97.68431885)"
151,3533,Housing First Oak Springs,"Housing First Oak Springs, LP",Austin Travis County Integral Care,3000 Oak Springs Drive,"78,702",1,50,50,50,Multifamily,Rental,Building Permit Issued,,,40,None,,0,0,50,0,0,0,0,Yes,No,No,No,No,No,No,No,No,No,No,No,No,Yes,No,No,No,No,No,0,"3,888,112.00",0,0,0,0,0,"3,888,112.00",4%,-97.70056603,30.27352219,"(30.27352219, -97.70056603)"
52,3309,Oak Springs Villas,"Oak Springs Villas, Inc.",Volunteers of America - Texas,3001 Oak Springs Drive,"78,702",3,56,56,0,Multifamily,Rental,Project Completed,2003,2078,75,None,,0,0,56,0,0,0,0,Yes,No,No,No,No,No,No,No,No,No,No,No,No,No,No,No,No,No,No,0,0,0,0,"466,715.00",0,0,"466,715.00",N/A,-97.70126065,30.27269913,"(30.27269913, -97.70126065)"
402,4406,300 Colorado,"Austin 3C Venture, LP/Graves, Dougherty, Hearon & Moody, PC","Austin 3C Venture, LP/Graves, Dougherty, Hearon & Moody, PC",300 Colorado Street,"78,701",9,315,0,,Non-Residential,Rental,Project Cancelled,,,0,None,,0,0,0,0,0,0,315,No,No,No,No,Yes,No,No,No,No,No,No,No,No,No,No,No,No,No,No,,,,,,,,0,N/A,-97.74532,30.265978,"(30.265978, -97.74532)"
649,5559,Hanover Republic Square,"Fifth and Lavaca Republic Square, LP",Simms & Stein Family Trust,"301, 303, & 305 W 5th Street","78,701",9,309,0,0,Multifamily,Rental,Certified/Loan Executed,,,0,Pending,"3,023,450.00",0,0,0,0,0,0,309,No,No,No,No,Yes,No,No,No,No,No,No,No,No,No,No,No,No,No,No,,,,,,,,0,N/A,-97.745876,30.267592,"(30.267592, -97.745876)"
12,3238,303 San Saba Street,Guadalupe Neighborhood Development Corporation,Guadalupe Neighborhood Development Corporation,303 San Saba Street,"78,702",3,1,1,0,Single Family,Rental,Project Completed,2005,2025,20,None,,0,0,0,1,0,0,0,Yes,No,No,No,No,No,No,No,No,No,No,No,No,Yes,No,No,No,No,No,0,0,0,"60,000.00",0,0,0,"60,000.00",N/A,-97.71440878,30.25588549,"(30.25588549, -97.71440878)"
70,3387,Capital Studios,"Foundation Communities, Inc.","Foundation Communities, Inc.",309 E 11th Street,"78,701",1,135,135,27,Multifamily,Rental,Project Completed,2014,2054,40,None,,27,27,81,0,0,0,0,Yes,No,No,No,No,No,No,No,No,No,No,No,No,Yes,No,No,No,No,No,"2,000,000.00",0,"1,150,000.00",0,0,"1,510,000.00",0,"4,660,000.00",9%,-97.73808578,30.27175218,"(30.27175218, -97.73808578)"
256,3682,Anderson Village,Austin Housing Finance Corporation,Austin Housing Finance Corporation,3101 E 12th Street,"78,702",2,24,24,0,Multifamily,Rental,Project Completed,2013,2112,99,None,,0,0,5,14,0,5,0,Yes,No,No,No,No,No,No,No,No,No,No,No,No,Yes,No,No,No,No,No,,,,,,,,0,N/A,-97.70220995,30.27644664,"(30.27644664, -97.70220995)"
660,5576,17th Street Condominimums,1615 Gudalupe LLC,1615 Guadalupe LLC,313 W. 17th Street,"78,701",9,117,0,0,Multifamily,Rental,Certified/Loan Executed,,,0,Pending,"372,204.00",0,0,0,0,0,0,117,No,No,No,No,Yes,No,No,No,No,No,No,No,No,No,No,No,No,No,No,,,,,,,,0,N/A,-97.74445,30.28036,"(30.28036, -97.74445)"
250,3676,Saint Louise House,VinCare Services of Austin Foundation,VinCare Services of Austin Foundation,3200 S Lamar Boulevard,"78,704",5,24,24,0,Multifamily,Rental,Project Completed,2009,2108,99,None,,12,0,12,0,0,0,0,Yes,No,No,No,No,No,No,No,No,No,No,No,No,No,No,No,No,No,No,"1,500,000.00",0,0,"1,213,000.00",0,0,0,"2,713,000.00",N/A,-97.78530304,30.2419701,"(30.2419701, -97.78530304)"
105,3492,Ivy Condos - Acq of 10 Units (2/5/13),"ESCT Austin Housing III, Inc.",Easter Seals of Central Texas,3204 Manchaca Road,"78,704",5,10,10,10,Multifamily,Rental,Project Completed,2013,2112,99,None,,0,0,10,0,0,0,0,Yes,No,No,No,No,No,No,No,No,No,No,No,No,No,No,No,No,No,No,0,0,0,"624,898.00",0,0,0,"624,898.00",N/A,-97.78266876,30.24027574,"(30.24027574, -97.78266876)"
15,3246,Ivy Condos,"ESCT Austin Housing III, Inc.",Easter Seals of Central Texas,3204 Manchaca Road,"78,704",5,8,8,8,Multifamily,Rental,Project Completed,2013,2112,99,None,,0,0,8,0,0,0,0,Yes,No,No,No,No,No,No,No,No,No,No,No,No,No,No,No,No,No,No,"494,740.00",0,0,0,0,0,0,"494,740.00",N/A,-97.78266876,30.24027574,"(30.24027574, -97.78266876)"
154,3536,KAPASI,Hanna & Mansoor Kapasi,"Mansoor Kapasi , Owner",3208 Merrie Lynn Avenue,"78,722",9,1,,,Single Family,Rental,Project Cancelled,2015,2020,5,None,,0,0,0,0,0,1,0,No,No,No,No,No,No,No,No,No,No,No,No,No,Yes,No,No,No,No,No,,,,,,,,0,N/A,-97.71251369,30.28618774,"(30.28618774, -97.71251369)"
382,3975,The Guthrie II,"CRP/Argyle Guthrie Owner, L.P.","CRP/Argyle Guthrie Owner, L.P.",3215 Gonzales Street,"78,702",3,12,1,,Multifamily,Rental,Building Permit Issued,,,40,None,0,0,0,0,1,0,0,0,No,No,No,No,No,No,No,No,No,No,No,No,No,No,No,No,No,Yes,No,,,,,,,,0,N/A,-97.704573,30.258311,"(30.258311, -97.704573)"
69,3386,Homestead Oaks,"Foundation Communities, Inc.","Foundation Communities, Inc.",3226 W Slaughter Lane,"78,748",5,140,126,14,Multifamily,Rental,Project Completed,2013,2053,40,None,,14,0,70,42,0,0,14,Yes,No,No,No,No,No,No,No,No,No,No,No,No,Yes,No,No,No,No,No,0,0,0,0,0,"3,250,000.00",0,"3,250,000.00",9%,-97.84472009,30.18153209,"(30.18153209, -97.84472009)"
272,3757,Elysium Grand,"Elysium Grand, LP","Saigebrook Development, LLC",3300 Oak Creek Drive,"78,727",7,85,72,25,Multifamily,Rental,Certified/Loan Executed,,,40,None,,12,0,40,20,0,0,13,Yes,No,No,No,No,No,No,No,No,No,No,No,No,Yes,No,No,No,No,No,0,"3,320,000.00",0,0,0,0,0,"3,320,000.00",N/A,-97.704184,30.426674,"(30.426674, -97.704184)"
421,4485,Ben White Studios,"Foundation Communities, Inc.","Foundation Communities, Inc.",3400 Comsouth Drive,"78,744",2,132,132,0,Multifamily,Rental,Certified/Loan Executed,,,5,None,0,27,27,78,0,0,0,0,No,No,No,No,No,No,No,No,No,No,No,No,No,Yes,No,No,No,No,No,,,,,,,,0,N/A,-97.720385,30.212364,"(30.212364, -97.720385)"
223,3604,The 704,The 704 (formerly Residences at the Spoke LLC),Residences at the Spoke LLC,3401 S Lamar Boulevard,"78,704",5,378,38,,Multifamily,Rental,Project Completed,2014,2054,40,None,,0,0,0,38,0,0,340,No,No,No,No,No,No,No,No,No,No,No,No,No,No,No,No,No,Yes,No,,,,,,,,0,N/A,-97.78470969,30.24161307,"(30.24161307, -97.78470969)"
28,3272,Franklin Gardens,Chestnut Senior Housing,Chestnut Neighborhood Revitalization Corporation,3522 E Martin Luther King Jr Boulevard,"78,723",1,22,22,0,Multifamily,Rental,Project Completed,2009,2059,50,None,,0,0,22,0,0,0,0,Yes,No,No,No,No,No,No,No,No,No,No,No,No,No,No,No,No,No,No,"1,000,000.00",0,0,0,0,0,0,"1,000,000.00",N/A,-97.6972034,30.28413274,"(30.28413274, -97.6972034)"
311,3828,Lamar Flats,"SL South Lamar, LP","SL South Lamar, LP",3607 S Lamar Boulevard,"78,704",5,308,31,,Multifamily,Rental,Project Completed,2018,2058,40,None,,0,0,0,0,0,31,277,No,No,No,No,No,No,No,No,No,No,No,No,No,No,No,No,No,Yes,No,,,,,,,,0,N/A,-97.787767,30.238968,"(30.238968, -97.787767)"
24,3267,Treaty Oaks,Green Doors,Green Doors,3700 Manchaca Road,"78,704",5,47,47,0,Multifamily,Rental,Project Completed,2009,2110,99,None,,0,0,47,0,0,0,0,Yes,No,No,No,No,No,No,No,No,No,No,No,No,Yes,No,No,No,No,No,"1,350,000.00",0,0,0,0,0,0,"1,350,000.00",N/A,-97.78439421,30.23658891,"(30.23658891, -97.78439421)"
381,3974,Greyshire Village,"Saigebrook Development, LLC","Saigebrook Development, LLC",3700 Payload Pass,"78,704",3,84,76,,Multifamily,Rental,Building Plan Under Review,,,40,None,0,16,0,31,29,0,0,8,No,No,No,No,No,No,No,No,No,No,No,No,No,Yes,No,No,No,No,No,,,,,,,,0,N/A,-97.755208,30.223162,"(30.223162, -97.755208)"
437,4583,Accessible Housing Austin! - SF,Accessible Housing Austin!,Accessible Housing Austin!,3705 Tamil Street,"78,749",8,1,1,0,Single Family,Rental,Project Completed,2016,2115,99,None,0,0,0,1,0,0,0,0,Yes,No,No,No,No,No,No,No,No,No,No,No,No,No,No,No,No,No,No,0,0,0,"137,900.00",0,0,0,"137,900.00",N/A,-97.836008,30.211278,"(30.211278, -97.836008)"
4,3227,LifeWorks Transitional Living Project,Lifeworks,Lifeworks,3710 S 2nd Street,"78,704",3,12,12,0,Multifamily,Rental,Project Completed,2006,2026,20,None,,0,0,12,0,0,0,0,Yes,No,No,No,No,No,No,No,No,No,No,No,No,Yes,No,No,No,No,No,0,0,0,0,"300,000.00",0,0,"300,000.00",N/A,-97.77101974,30.22983682,"(30.22983682, -97.77101974)"
228,3609,The Tree,Greystar Development,Greystar Development,3715 S 1st Street,"78,704",3,336,34,,Multifamily,Rental,Project Completed,2014,2054,40,None,,0,0,0,0,0,34,302,No,No,No,No,No,No,No,No,No,No,No,No,No,No,No,No,No,Yes,No,,,,,,,,0,N/A,-97.76731465,30.22898414,"(30.22898414, -97.76731465)"
347,3900,Wildflower Terrace,"Catellus Austin, LLC",Catellus Austin LLC,3801 Berkman Drive,"78,723",9,201,171,0,Multifamily,Rental,Project Completed,2012,2111,99,None,,26,0,60,85,0,0,30,Yes,No,No,No,No,No,Yes,No,No,No,No,No,No,Yes,No,No,No,No,No,"2,000,000.00",0,0,0,0,0,0,"2,000,000.00",9%,-97.6984403,30.2909045,"(30.2909045, -97.6984403)"
391,4184,4008 Brookview (ADU),Prodanovic-Nelson Brown,Austin Community Design & Development Center/Prodanovic-Nelson Brown,4008 Brookview Road,"78,722",9,1,1,,Single Family,Rental,Project Completed,2019,2024,5,None,0,0,0,0,0,0,1,0,No,No,No,No,No,No,No,No,No,No,No,No,No,Yes,No,No,No,No,No,,,,,,,,0,N/A,-97.71003,30.294169,"(30.294169, -97.71003)"
599,5383,Riverside PUD,"Stream Realty Partners, LP",Stream Realty,401 S 1st Street,"78,704",9,0,0,0,Non-Residential,Rental,Building Plan Under Review,,,0,Pending,0,0,0,0,0,0,0,0,No,No,No,No,No,No,No,No,No,No,No,Yes,No,No,No,No,No,No,No,,,,,,,,0,N/A,-97.749352,30.259236,"(30.259236, -97.749352)"
