[{"ID":0,"Name:"Ruth R. Schulze House,"Address:"915 W 22nd Street,Zip Code: 78705,"lat:"30.28523998"lng:"-97.74790896},"ID":1,"Name:"Aspen West Campus,"Address:"1909 Rio Grande Street,Zip Code: 78705,"lat:"30.283589"lng:"-97.744783},"ID":2,"Name:"Villas on San Gabriel II,"Address:"2414 San Gabriel Street,Zip Code: 78705,"lat:"30.28884358"lng:"-97.74789193},"ID":3,"Name:"Skyloft,"Address:"507 W 23rd Street,Zip Code: 78705,"lat:"30.286358"lng:"-97.743507},"ID":4,"Name:"UH 2100 San Antonio,"Address:"2100 San Antonio Street,Zip Code: 78705,"lat:"30.28418536"lng:"-97.74312525},"ID":5,"Name:"Texas Alpha House,"Address:"2501 Nueces Street,Zip Code: 78705,"lat:"30.28932076"lng:"-97.74277481},"ID":6,"Name:"2502 Nueces Street,"Address:"2502 Nueces Street,Zip Code: 78705,"lat:"30.289642"lng:"-97.743338},"ID":7,"Name:"The Corner,"Address:"2504 San Gabriel Street,Zip Code: 78705,"lat:"30.28947518"lng:"-97.74783117},"ID":8,"Name:"The Super Co-op,"Address:"1905 Nueces Street,Zip Code: 78705,"lat:"30.28301798"lng:"-97.74383608},"ID":9,"Name:"Texan 26th,"Address:"1009 W 26th Street,Zip Code: 78705,"lat:"30.29058927"lng:"-97.7481753},"ID":10,"Name:"Pointe on Rio,"Address:"1901 Rio Grande Street,Zip Code: 78705,"lat:"30.28285304"lng:"-97.74492906},"ID":11,"Name:"Villas on 26th,"Address:"800 W 26th Street,Zip Code: 78705,"lat:"30.2909574"lng:"-97.74556505},"ID":12,"Name:"The Quarters at Bandera House,"Address:"2215 Rio Grande Street,Zip Code: 78705,"lat:"30.28645112"lng:"-97.74461305},"ID":13,"Name:"Regents at 24th,"Address:"2401 San Gabriel Street,Zip Code: 78705,"lat:"30.28842124"lng:"-97.74745612},"ID":14,"Name:"Crest at Pearl,"Address:"706 Martin Luther King Jr Bouelvard,Zip Code: 78705,"lat:"30.28329642"lng:"-97.74618319},"ID":15,"Name:"21 Pearl,"Address:"911 W 21st Street,Zip Code: 78705,"lat:"30.28468462"lng:"-97.74746147},"ID":16,"Name:"Woolridge Hall,"Address:"2400 Nueces Street,Zip Code: 78705,"lat:"30.2882158"lng:"-97.74343837},"ID":17,"Name:"Callaway House Austin,"Address:"505 W 22nd Street,Zip Code: 78705,"lat:"30.28494112"lng:"-97.74342091},"ID":18,"Name:"Grand Marc at 26th,"Address:"510 W 26th Street,Zip Code: 78705,"lat:"30.29099868"lng:"-97.74257135},"ID":19,"Name:"Regents at 26th,"Address:"900 W 26th Street,Zip Code: 78705,"lat:"30.29099695"lng:"-97.74649449},"ID":20,"Name:"2401 Longview,"Address:"2401 Longview Street,Zip Code: 78705,"lat:"30.28868985"lng:"-97.75048641},"ID":21,"Name:"Axis West Campus,"Address:"2505 Longview Street,Zip Code: 78705,"lat:"30.29006698"lng:"-97.75023504},"ID":22,"Name:"Ellora Apartments,"Address:"908 W 21st Street,Zip Code: 78705,"lat:"30.28498076"lng:"-97.74746589},"ID":23,"Name:"2608 Salado Multifamily,"Address:"2608 Salado Street,Zip Code: 78705,"lat:"30.29161949"lng:"-97.74552828},"ID":24,"Name:"21 Rio,"Address:"2101 Rio Grande Street,Zip Code: 78705,"lat:"30.2842162"lng:"-97.74474277},"ID":25,"Name:"Block on Leon,"Address:"2510  Leon Street,Zip Code: 78705,"lat:"30.29051861"lng:"-97.7494449},"ID":26,"Name:"904-908 W. 22 1/2 Street,"Address:"904 W 22nd Street,Zip Code: 78705,"lat:"30.28561668"lng:"-97.74701685},"ID":27,"Name:"Block on 23rd,"Address:"2222 Pearl Street,Zip Code: 78705,"lat:"30.28706135"lng:"-97.74671373},"ID":28,"Name:"Karnes House (fka University Garden Apartments),"Address:"2222 Rio Grande Street,Zip Code: 78705,"lat:"30.28685336"lng:"-97.74501122},"ID":29,"Name:"Quarters at Nueces House,"Address:"2300 Nueces Street,Zip Code: 78705,"lat:"30.28679177"lng:"-97.74390448},"ID":30,"Name:"Block on 25th West,"Address:"2501 Pearl Street,Zip Code: 78705,"lat:"30.28958455"lng:"-97.7462254},"ID":31,"Name:"Texan Shoal Creek,"Address:"2502 Leon Street,Zip Code: 78705,"lat:"30.28985058"lng:"-97.74945961},"ID":32,"Name:"Texan Tower,"Address:"2505 San Gabriel Street,Zip Code: 78705,"lat:"30.2901088"lng:"-97.74739903},"ID":33,"Name:"Texan at Pearl,"Address:"2515 Pearl Street,Zip Code: 78705,"lat:"30.29064945"lng:"-97.74625073},"ID":34,"Name:"Quarters at Montgomery,"Address:"2700 Nueces Street,Zip Code: 78705,"lat:"30.2920704"lng:"-97.74320662},"ID":35,"Name:"Block on Rio Grande,"Address:"2819 Rio Grande Street,Zip Code: 78705,"lat:"30.29507208"lng:"-97.74366717},"ID":36,"Name:"Jefferson at West Campus,"Address:"600 W 26th Street,Zip Code: 78705,"lat:"30.29111022"lng:"-97.74346368},"ID":37,"Name:"Block on 28th,"Address:"701 W 28th Street,Zip Code: 78705,"lat:"30.29327736"lng:"-97.74463321},"ID":38,"Name:"Block on 25th East,"Address:"702 W 25th Street,Zip Code: 78705,"lat:"30.28957953"lng:"-97.74515909},"ID":39,"Name:"Quarters at Grayson,"Address:"714 W 22nd Street,Zip Code: 78705,"lat:"30.28550747"lng:"-97.74630853},"ID":40,"Name:"Block on Pearl South,"Address:"900 W 22nd Street,Zip Code: 78705,"lat:"30.28562987"lng:"-97.74670947},"ID":41,"Name:"Block at Pearl - North,"Address:"901 W 22nd Street,Zip Code: 78705,"lat:"30.28606359"lng:"-97.74663415},"ID":42,"Name:"Galileo,"Address:"910 W 25th Street,Zip Code: 78705,"lat:"30.28963999"lng:"-97.74734934},"ID":43,"Name:"Rio West Student Living,"Address:"2704 Rio Grande Street,Zip Code: 78705,"lat:"30.29296103"lng:"-97.74454388},"ID":44,"Name:"Quarters at Cameron,"Address:"2707 Rio Grande Street,Zip Code: 78705,"lat:"30.29239274"lng:"-97.74391417},"ID":45,"Name:"Quarters at Sterling,"Address:"709 W 22nd Street,Zip Code: 78705,"lat:"30.28498621"lng:"-97.7459644},"ID":46,"Name:"Texan West Campus,"Address:"2616 Salado Street,Zip Code: 78705,"lat:"30.292272"lng:"-97.745467},"ID":47,"Name:"AVIA @ 26th,"Address:"1010 W 26th Street,Zip Code: 78705,"lat:"30.291257"lng:"-97.748911},"ID":48,"Name:"AC Autograph Hotel,"Address:"1901 San Antonio Street,Zip Code: 78705,"lat:"30.282237"lng:"-97.743144},"ID":49,"Name:"1900 Block Nueces,"Address:"1910 Nueces Street,Zip Code: 78705,"lat:"30.282387"lng:"-97.744177},"ID":50,"Name:"The Nine at Rio,"Address:"2100 Rio Grande Street,Zip Code: 78705,"lat:"30.284272"lng:"-97.745293},"ID":51,"Name:"2200 Nueces Street,"Address:"2200 Nueces Street,Zip Code: 78705,"lat:"30.285401"lng:"-97.744188},"ID":52,"Name:"2204 San Antonio,"Address:"2204 San Antonio Street,Zip Code: 78705,"lat:"30.285646"lng:"-97.743134},"ID":53,"Name:"Villas on Nueces,"Address:"2207 Nueces Street,Zip Code: 78705,"lat:"30.285871"lng:"-97.743575},"ID":54,"Name:"Hilltop,"Address:"2408 San Gabriel Street,Zip Code: 78705,"lat:"30.288769"lng:"-97.748248},"ID":55,"Name:"2513 Seton,"Address:"2513 Seton Avenue,Zip Code: 78705,"lat:"30.28926"lng:"-97.74377},"ID":56,"Name:"Avena Tower,"Address:"2515 San Gabriel Street,Zip Code: 78705,"lat:"30.290557"lng:"-97.747166},"ID":57,"Name:"The Nine at Austin,"Address:"2518 Leon Street,Zip Code: 78705,"lat:"30.290996"lng:"-97.749342},"ID":58,"Name:"2614 Rio Grande,"Address:"2614 Rio Grande and 2611 Salado,Zip Code: 78705,"lat:"30.29174"lng:"-97.74479},"ID":59,"Name:"Villas in Rio,"Address:"611 W 22nd Street, 2209 Rio Grande and 2207 Rio Grande,Zip Code: 78705,"lat:"30.285037"lng:"-97.744711},"ID":60,"Name:"Six Ten,"Address:"620 W 24th Street,Zip Code: 78705,"lat:"30.288072"lng:"-97.743941},"ID":61,"Name:"21st St Co-op,"Address:"707 W 21st St,Zip Code: 78705,"lat:"30.28394"lng:"-97.74592},"ID":62,"Name:"The Standard at Austin,"Address:"715 W 23rd Street,Zip Code: 78705,"lat:"30.286992"lng:"-97.745828},"ID":63,"Name:"The Standard II,"Address:"801 W 24th Street,Zip Code: 78705,"lat:"30.28786"lng:"-97.7463},"ID":64,"Name:"Avon at 22nd,"Address:"911 W 22nd Street,Zip Code: 78705,"lat:"30.285403"lng:"-97.747712},"ID":65,"Name:"Peregrine Hotel,"Address:"924 E 7th Street,Zip Code: 78705,"lat:"30.266261"lng:"-97.731875}]